{"Stops":[{"StopId":35,"Code":"BX 01","Name":"Bến xe buýt Sài Gòn","StopType":"Bến xe","Zone":"Quận 1","Ward":"Phường Phạm Ngũ Lão","AddressNo":"BẾN XE BUÝT SÀI GÒN","Street":"Lê Lai","SupportDisability":"Có","Status":"Đang khai thác","Lng":106.689362,"Lat":10.767676,"Search":"BxbSG BXBSG LL","Routes":"03, 04, 102, 109, 120, 13, 140, 18, 19, 20, 27, 28, 34, 36, 39, 52, 61-6, 65, 69, 70-3, 72, 75, 86, 88, 93, D1"},{"StopId":7276,"Code":"Q1 190","Name":"Tôn Thất Tùng","StopType":"Trụ dừng","Zone":"Quận 1","Ward":"Phường Phạm Ngũ Lão","AddressNo":"277-279-275Y","Street":"Phạm Ngũ Lão","SupportDisability":"Có","Status":"Đang khai thác","Lng":106.690941,"Lat":10.76767,"Search":"TTT 277-279-275Y PNL","Routes":"03, 04, 102, 109, 140, 18, 19, 20, 28, 34, 36, 39, 46, 52, 65, 69, 72, 75, 86, 88, 93"},{"StopId":7277,"Code":"Q1 191","Name":"Nguyễn Thị Nghĩa","StopType":"Trụ dừng","Zone":"Quận 1","Ward":"Phường Phạm Ngũ Lão","AddressNo":"187","Street":"Phạm Ngũ Lão","SupportDisability":"Có","Status":"Đang khai thác","Lng":106.693699,"Lat":10.768788,"Search":"NTN 187 PNL","Routes":"03, 04, 102, 109, 140, 18, 19, 20, 28, 34, 36, 39, 46, 52, 65, 69, 72, 93, DL01"},{"StopId":7278,"Code":"Q1 192","Name":"Trường Emst Thalmann","StopType":"Nhà chờ","Zone":"Quận 1","Ward":"Phường Phạm Ngũ Lão","AddressNo":"Trường Emst Thalmann","Street":"Phạm Ngũ Lão","SupportDisability":"Có","Status":"Đang khai thác","Lng":106.695587,"Lat":10.769504,"Search":"TET TET PNL","Routes":"03, 04, 102, 109, 18, 19, 20, 34, 36, 39, 52, 65, 69, 93"},{"StopId":7265,"Code":"Q1 179","Name":"Trạm Trung chuyển trên đường Hàm Nghi","StopType":"Nhà chờ","Zone":"Quận 1","Ward":"Phường Nguyễn Thái Bình","AddressNo":"Hàm nghi 5","Street":"Hàm Nghi","SupportDisability":"Có","Status":"Đang khai thác","Lng":106.700259,"Lat":10.770911,"Search":"TTctdHN Hn5 HN","Routes":"03, 45, 53, 61-6, D1"},{"StopId":7266,"Code":"Q1 180","Name":"Trạm Trung chuyển trên đường Hàm Nghi","StopType":"Nhà chờ","Zone":"Quận 1","Ward":"Phường Nguyễn Thái Bình","AddressNo":"Hàm Nghi 7","Street":"Hàm Nghi","SupportDisability":"Có","Status":"Đang khai thác","Lng":106.700807,"Lat":10.770896,"Search":"TTctdHN HN7 HN","Routes":"01, 03, 04, 19, 56, 88"},{"StopId":7693,"Code":"Q1 1950","Name":"Nam Kỳ Khởi Nghĩa","StopType":"Nhà chờ","Zone":"Quận 1","Ward":"Phường Nguyễn Thái Bình","AddressNo":"93-95","Street":"Hàm Nghi","SupportDisability":"Có","Status":"Đang khai thác","Lng":106.701354,"Lat":10.770875,"Search":"NKKN 93-95 HN","Routes":"01, 03, 04, 19, 88"},{"StopId":1256,"Code":"Q1 195","Name":"Chợ Cũ","StopType":"Nhà chờ","Zone":"Quận 1","Ward":"Phường Nguyễn Thái Bình","AddressNo":"89A","Street":"Hàm Nghi","SupportDisability":"","Status":"Đang khai thác","Lng":106.701998,"Lat":10.770811,"Search":"CC 89A HN","Routes":"01, 03, 04, 152, 18, 19, 31, 36, 45, 52, 56, 61-6, 75, 86, 88, 93"},{"StopId":7588,"Code":"Q1 200","Name":"Giao lộ Hàm Nghi - Tôn Thất Đạm","StopType":"Nhà chờ","Zone":"Quận 1","Ward":"Phường Nguyễn Thái Bình","AddressNo":"81-83-83B","Street":"Hàm Nghi","SupportDisability":"","Status":"Đang khai thác","Lng":106.703038,"Lat":10.77078,"Search":"GlHN-TTD 81-83-83B HN","Routes":"03"},{"StopId":32,"Code":"Q1 017","Name":"Hồ Tùng Mậu","StopType":"Nhà chờ","Zone":"Quận 1","Ward":"Phường Nguyễn Thái Bình","AddressNo":"67","Street":"Hàm Nghi","SupportDisability":"","Status":"Đang khai thác","Lng":106.704074,"Lat":10.770722,"Search":"HTM 67 HN","Routes":"01, 03, 120, 19, 20, 45, 56, 61-6, 75, 88, D1, DL01"},{"StopId":31,"Code":"Q1 024","Name":"Bến Bạch Đằng","StopType":"Nhà chờ","Zone":"Quận 1","Ward":null,"AddressNo":"Bến thủy nội địa Thủ Thiêm","Street":"Tôn Đức Thắng","SupportDisability":"","Status":"Đang khai thác","Lng":106.706654,"Lat":10.774094,"Search":"BBD BtndTT TDT","Routes":"01, 03, 19, 45, 53, 56, 61-6, 88, D1, DL01"},{"StopId":34,"Code":"Q1 057","Name":"Công Trường Mê Linh","StopType":"Nhà chờ","Zone":"Quận 1","Ward":null,"AddressNo":"2","Street":"Hai Bà Trưng","SupportDisability":"","Status":"Đang khai thác","Lng":106.705822,"Lat":10.775997,"Search":"CTML 2 HBT","Routes":"01, 03, 19, 45"},{"StopId":42,"Code":"Q1 058","Name":"Nhà Hát Thành Phố","StopType":"Ô sơn","Zone":"Quận 1","Ward":null,"AddressNo":"74/A2-74/A4","Street":"Hai Bà Trưng","SupportDisability":"","Status":"Đang khai thác","Lng":106.703559,"Lat":10.778031,"Search":"NHTP 74/A2-74/A4 HBT","Routes":"03, 19, 45"},{"StopId":44,"Code":"Q1 059","Name":"Bệnh viện Nhi Đồng 2","StopType":"Nhà chờ","Zone":"Quận 1","Ward":null,"AddressNo":"Đối diện 115Ter","Street":"Hai Bà Trưng","SupportDisability":"","Status":"Đang khai thác","Lng":106.701536,"Lat":10.779881,"Search":"BvND2 Dd115Ter HBT","Routes":"03, 19, 45"},{"StopId":39,"Code":"Q1 060","Name":"Bưu Điện Thành Phố","StopType":"Trụ dừng","Zone":"Quận 1","Ward":null,"AddressNo":"86","Street":"Hai Bà Trưng","SupportDisability":"","Status":"Đang khai thác","Lng":106.700673,"Lat":10.780645,"Search":"BDTP 86 HBT","Routes":"03, 19, 45"},{"StopId":41,"Code":"Q1 061","Name":"Sở Công Thương","StopType":"Nhà chờ","Zone":"Quận 1","Ward":null,"AddressNo":"142","Street":"Hai Bà Trưng","SupportDisability":"","Status":"Đang khai thác","Lng":106.696526,"Lat":10.784297,"Search":"SCT 142 HBT","Routes":"03, 31"},{"StopId":43,"Code":"Q1 062","Name":"Công viên Lê Văn Tám","StopType":"Nhà chờ","Zone":"Quận 1","Ward":null,"AddressNo":"Đối diện 245","Street":"Hai Bà Trưng","SupportDisability":"","Status":"Đang khai thác","Lng":106.692599,"Lat":10.787427,"Search":"CvLVT Dd245 HBT","Routes":"03, 31, 36"},{"StopId":46,"Code":"Q1 063","Name":"Nhà thờ Tân Định","StopType":"Trụ dừng","Zone":"Quận 1","Ward":null,"AddressNo":"298","Street":"Hai Bà Trưng","SupportDisability":"","Status":"Đang khai thác","Lng":106.690399,"Lat":10.789215,"Search":"NtTD 298 HBT","Routes":"03, 31, 36"},{"StopId":47,"Code":"Q1 064","Name":"Chợ Tân Định","StopType":"Trụ dừng","Zone":"Quận 1","Ward":null,"AddressNo":"372-374","Street":"Hai Bà Trưng","SupportDisability":"","Status":"Đang khai thác","Lng":106.688843,"Lat":10.790456,"Search":"CTD 372-374 HBT","Routes":"03, 31, 36"},{"StopId":45,"Code":"QPN 012","Name":"Cầu Kiệu","StopType":"Ô sơn","Zone":"Quận Phú Nhuận","Ward":null,"AddressNo":"28 - 30","Street":"Phan Đình Phùng","SupportDisability":"","Status":"Đang khai thác","Lng":106.68481,"Lat":10.79365,"Search":"CK 28-30 PDP","Routes":"03"},{"StopId":49,"Code":"QPN 013","Name":"Chợ Phú Nhuận","StopType":"Ô sơn","Zone":"Quận Phú Nhuận","Ward":null,"AddressNo":"158 - 160","Street":"Phan Đình Phùng","SupportDisability":"","Status":"Đang khai thác","Lng":106.683018,"Lat":10.795062,"Search":"CPN 158-160 PDP","Routes":"03"},{"StopId":48,"Code":"QPN 014","Name":"Trường Cao đẳng Kinh tế Đối ngoại","StopType":"Ô sơn","Zone":"Quận Phú Nhuận","Ward":null,"AddressNo":"312 - 314","Street":"Phan Đình Phùng","SupportDisability":"","Status":"Đang khai thác","Lng":106.680905,"Lat":10.79795,"Search":"TCdKtDn 312-314 PDP","Routes":"03"},{"StopId":50,"Code":"QPN 001","Name":"Ngã tư Phú Nhuận","StopType":"Trụ dừng","Zone":"Quận Phú Nhuận","Ward":null,"AddressNo":"392","Street":"Nguyễn Kiệm","SupportDisability":"","Status":"Đang khai thác","Lng":106.680138,"Lat":10.799713,"Search":"NtPN 392 NK","Routes":"03, 55"},{"StopId":51,"Code":"QPN 002","Name":"Nhà Truyền Thông","StopType":"Trụ dừng","Zone":"Quận Phú Nhuận","Ward":null,"AddressNo":"466","Street":"Nguyễn Kiệm","SupportDisability":"","Status":"Đang khai thác","Lng":106.679245,"Lat":10.802232,"Search":"NTT 466 NK","Routes":"03, 55"},{"StopId":52,"Code":"QPN 003 ","Name":"Ngã ba Hồ Văn Huê","StopType":"Trụ dừng","Zone":"Quận Phú Nhuận","Ward":null,"AddressNo":"582","Street":"Nguyễn Kiệm","SupportDisability":"","Status":"Đang khai thác","Lng":106.678759,"Lat":10.805259,"Search":"NbHVH 582 NK","Routes":"03, 55"},{"StopId":53,"Code":"QPN 004","Name":"Coop Mart Nguyễn Kiệm","StopType":"Trụ dừng","Zone":"Quận Phú Nhuận","Ward":null,"AddressNo":"668-670","Street":"Nguyễn Kiệm","SupportDisability":"","Status":"Đang khai thác","Lng":106.678528,"Lat":10.807077,"Search":"CMNK 668-670 NK","Routes":"03, 55"},{"StopId":54,"Code":"QPN 005","Name":"Chùa Vạn Hạnh","StopType":"Nhà chờ","Zone":"Quận Phú Nhuận","Ward":null,"AddressNo":"750","Street":"Nguyễn Kiệm","SupportDisability":"","Status":"Đang khai thác","Lng":106.67856,"Lat":10.810349,"Search":"CVH 750 NK","Routes":"03, 55"},{"StopId":55,"Code":"QGV 125","Name":"Trường Cao đẳng Hải Quan","StopType":"Nhà chờ","Zone":"Quận Gò Vấp","Ward":null,"AddressNo":"780A","Street":"Nguyễn Kiệm","SupportDisability":"","Status":"Đang khai thác","Lng":106.678711,"Lat":10.812475,"Search":"TCdHQ 780A NK","Routes":"03, 55"},{"StopId":56,"Code":"QGV 040","Name":"Cầu vượt Nguyễn Thái Sơn - Nguyễn Kiệm","StopType":"Trụ dừng","Zone":"Quận Gò Vấp","Ward":null,"AddressNo":"86 - 86C","Street":"Nguyễn Thái Sơn","SupportDisability":"","Status":"Đang khai thác","Lng":106.680443,"Lat":10.816282,"Search":"CvNTS-NK 86-86C NTS","Routes":"03, 07, 103, 148, 55, 59"},{"StopId":57,"Code":"QGV 042","Name":"Ngã ba Phạm Ngũ Lão","StopType":"Trụ dừng","Zone":"Quận Gò Vấp","Ward":null,"AddressNo":"182","Street":"Nguyễn Thái Sơn","SupportDisability":"","Status":"Đang khai thác","Lng":106.683147,"Lat":10.819712,"Search":"NbPNL 182 NTS","Routes":"03, 07, 103, 148, 55, 59"},{"StopId":60,"Code":"QGV 187 ","Name":"Cầu vượt ngã sáu Gò Vấp","StopType":"Trụ dừng","Zone":"Quận Gò Vấp","Ward":null,"AddressNo":"140-142","Street":"Phạm Ngũ Lão ","SupportDisability":"","Status":"Đang khai thác","Lng":106.681221,"Lat":10.824607,"Search":"CvnsGV 140-142 PNL","Routes":"03, 07, 103, 148, 55, 59"},{"StopId":58,"Code":"QGV 104","Name":"Cầu vượt ngã sáu Gò Vấp","StopType":"Trụ dừng","Zone":"Quận Gò Vấp","Ward":null,"AddressNo":"110-112","Street":"Nguyễn Oanh","SupportDisability":"","Status":"Đang khai thác","Lng":106.678775,"Lat":10.828991,"Search":"CvnsGV 110-112 NO","Routes":"03, 59"},{"StopId":62,"Code":"QGV 106","Name":"Ngã tư Phan Văn Trị","StopType":"Nhà chờ","Zone":"Quận Gò Vấp","Ward":null,"AddressNo":"152","Street":"Nguyễn Oanh","SupportDisability":"","Status":"Đang khai thác","Lng":106.676699,"Lat":10.832547,"Search":"NtPVT 152 NO","Routes":"03, 59"},{"StopId":67,"Code":"QGV 107","Name":"Cư xá Lam Sơn","StopType":"Nhà chờ","Zone":"Quận Gò Vấp","Ward":null,"AddressNo":"214","Street":"Nguyễn Oanh","SupportDisability":"","Status":"Đang khai thác","Lng":106.67561,"Lat":10.836114,"Search":"CxLS 214 NO","Routes":"03, 59"},{"StopId":63,"Code":"QGV 108","Name":"Đài Liệt sĩ","StopType":"Nhà chờ","Zone":"Quận Gò Vấp","Ward":null,"AddressNo":"Đối diện 197 (93)","Street":"Nguyễn Oanh","SupportDisability":"","Status":"Đang khai thác","Lng":106.67583,"Lat":10.839297,"Search":"DLs Dd197( NO","Routes":"03, 59"},{"StopId":72,"Code":"QGV 109","Name":"Ngã tư An Nhơn","StopType":"Trụ dừng","Zone":"Quận Gò Vấp","Ward":null,"AddressNo":"388","Street":"Nguyễn Oanh","SupportDisability":"","Status":"Đang khai thác","Lng":106.676833,"Lat":10.842268,"Search":"NtAN 388 NO","Routes":"03, 32, 59"},{"StopId":64,"Code":"QGV 110","Name":"Bến Đò","StopType":"Trụ dừng","Zone":"Quận Gò Vấp","Ward":null,"AddressNo":"538","Street":"Nguyễn Oanh","SupportDisability":"","Status":"Đang khai thác","Lng":106.678496,"Lat":10.84691,"Search":"BD 538 NO","Routes":"03, 32, 59"},{"StopId":4754,"Code":"QGV 111","Name":"Cầu An Lộc","StopType":"Trụ dừng","Zone":"Quận Gò Vấp","Ward":"Phường 06","AddressNo":"604","Street":"Nguyễn Oanh","SupportDisability":"Có","Status":"Đang khai thác","Lng":106.678802,"Lat":10.849117,"Search":"CAL 604 NO","Routes":"03, 32, 59"},{"StopId":73,"Code":"Q12 032","Name":"Nhà hàng Bến Xưa","StopType":"Trụ dừng","Zone":"Quận 12","Ward":null,"AddressNo":"42","Street":"Hà Huy Giáp","SupportDisability":"","Status":"Đang khai thác","Lng":106.679285,"Lat":10.852642,"Search":"NhBX 42 HHG","Routes":"03, 32, 59"},{"StopId":213,"Code":"Q12 033","Name":"Ngã tư Ga","StopType":"Trụ dừng","Zone":"Quận 12","Ward":null,"AddressNo":"154","Street":"Hà Huy Giáp","SupportDisability":"","Status":"Đang khai thác","Lng":106.679907,"Lat":10.857331,"Search":"NtG 154 HHG","Routes":"03, 32, 59"},{"StopId":68,"Code":"Q12 034","Name":"Đình thần Giao Khẩu","StopType":"Trụ dừng","Zone":"Quận 12","Ward":null,"AddressNo":"332","Street":"Hà Huy Giáp","SupportDisability":"","Status":"Đang khai thác","Lng":106.680433,"Lat":10.865217,"Search":"DtGK 332 HHG","Routes":"03, 58"},{"StopId":74,"Code":"Q12 035","Name":"Cây xăng Tài Lộc","StopType":"Trụ dừng","Zone":"Quận 12","Ward":null,"AddressNo":"408B","Street":"Hà Huy Giáp","SupportDisability":"","Status":"Đang khai thác","Lng":106.678319,"Lat":10.86831,"Search":"CxTL 408B HHG","Routes":"03, 58"},{"StopId":69,"Code":"Q12 036","Name":"Vườn kiểng Quang Dũng","StopType":"Trụ dừng","Zone":"Quận 12","Ward":null,"AddressNo":"452","Street":"Hà Huy Giáp","SupportDisability":"","Status":"Đang khai thác","Lng":106.676978,"Lat":10.871371,"Search":"VkQD 452 HHG","Routes":"03, 58"},{"StopId":70,"Code":"Q12 037","Name":"Ga ra Thanh Hậu","StopType":"Trụ dừng","Zone":"Quận 12","Ward":null,"AddressNo":"508","Street":"Hà Huy Giáp","SupportDisability":"","Status":"Đang khai thác","Lng":106.677032,"Lat":10.875454,"Search":"GrTH 508 HHG","Routes":"03, 58"},{"StopId":71,"Code":"Q12 038","Name":"Chợ Thạnh Xuân","StopType":"Nhà chờ","Zone":"Quận 12","Ward":null,"AddressNo":"Nhà văn hóa P. Thạnh Lộc","Street":"Hà Huy Giáp","SupportDisability":"","Status":"Đang khai thác","Lng":106.678201,"Lat":10.878493,"Search":"CTX NvhPTL HHG","Routes":"03, 58"},{"StopId":77,"Code":"Q12 039","Name":"Trường Điện lực 2","StopType":"Trụ dừng","Zone":"Quận 12","Ward":null,"AddressNo":"554 ","Street":"Hà Huy Giáp","SupportDisability":"","Status":"Đang khai thác","Lng":106.679188,"Lat":10.880785,"Search":"TDl2 554 HHG","Routes":"03, 58"},{"StopId":3204,"Code":"Q12 040","Name":"Trường Nguyễn Văn Thệ","StopType":"Trụ dừng","Zone":"Quận 12","Ward":null,"AddressNo":"628B","Street":"Hà Huy Giáp","SupportDisability":"","Status":"Đang khai thác","Lng":106.681296,"Lat":10.884562,"Search":"TNVT 628B HHG","Routes":"03, 58"},{"StopId":3203,"Code":"Q12 041","Name":"Cây xăng Thanh Bình","StopType":"Trụ dừng","Zone":"Quận 12","Ward":null,"AddressNo":"704","Street":"Hà Huy Giáp","SupportDisability":"","Status":"Đang khai thác","Lng":106.68305,"Lat":10.886253,"Search":"CxTB 704 HHG","Routes":"03, 58"},{"StopId":3206,"Code":"Q12 042","Name":"Cầu Ông Dung","StopType":"Trụ dừng","Zone":"Quận 12","Ward":null,"AddressNo":"1/111","Street":"Hà Huy Giáp","SupportDisability":"","Status":"Đang khai thác","Lng":106.685185,"Lat":10.88876,"Search":"COD 1/111 HHG","Routes":"03, 58"},{"StopId":3259,"Code":"Q12 043","Name":"Cầu Phú Long","StopType":"Trụ dừng","Zone":"Quận 12","Ward":null,"AddressNo":"856","Street":"Hà Huy Giáp","SupportDisability":"","Status":"Đang khai thác","Lng":106.687031,"Lat":10.892079,"Search":"CPL 856 HHG","Routes":"03, 58"},{"StopId":3207,"Code":"Q12T117","Name":"Chùa Báo Ấn","StopType":"Ô sơn","Zone":"Quận 12","Ward":null,"AddressNo":"938","Street":"Hà Huy Giáp","SupportDisability":"","Status":"Đang khai thác","Lng":106.688619,"Lat":10.89486,"Search":"CBA 938 HHG","Routes":"03, 58"},{"StopId":3210,"Code":"Q12 232","Name":"Chợ Đường","StopType":"Ô sơn","Zone":"Quận 12","Ward":null,"AddressNo":"18","Street":"Bùi Công Trừng","SupportDisability":"","Status":"Đang khai thác","Lng":106.689101,"Lat":10.897721,"Search":"CD 18 BCT","Routes":"03, 58"},{"StopId":75,"Code":"BX38","Name":"THẠNH LỘC","StopType":"Bến xe","Zone":"Quận 12","Ward":null,"AddressNo":"Thửa đất số 413 tờ bản đồ số 04, phường Thạnh Xuân, Quận 12","Street":"Thạnh Lộc 52","SupportDisability":"","Status":"Đang khai thác","Lng":106.673427,"Lat":10.89288,"Search":"TL Tds413tbds04,pTXQ12 TL52","Routes":"03"}],"RouteId":"3","RouteVarId":"5"}
{"Stops":[{"StopId":468,"Code":"BX43","Name":"BÃI HẬU CẦN SỐ 1","StopType":"Bến xe","Zone":"Quận Gò Vấp","Ward":null,"AddressNo":"BÃI HẬU CẦN SỐ 1","Street":"Phan Văn Trị","SupportDisability":"","Status":"Đang khai thác","Lng":106.69189453125,"Lat":10.82361125946045,"Search":"BHCS1 BHCS1 PVT","Routes":"07, 148"},{"StopId":539,"Code":"QGV 001","Name":"Bãi hậu cần số 1","StopType":"Trụ dừng","Zone":"Quận Gò Vấp","Ward":null,"AddressNo":"Đối diện 439","Street":"Phan Văn Trị","SupportDisability":"","Status":"Đang khai thác","Lng":106.69195,"Lat":10.823964,"Search":"Bhcs1 Dd439 PVT","Routes":"07, 148, 36"},{"StopId":540,"Code":"QGV 048","Name":"UBND Phường 5","StopType":"Trụ dừng","Zone":"Quận Gò Vấp","Ward":null,"AddressNo":"247","Street":"Nguyễn Thái Sơn","SupportDisability":"","Status":"Đang khai thác","Lng":106.688259,"Lat":10.825513,"Search":"UP5 247 NTS","Routes":"07, 146, 148"},{"StopId":541,"Code":"QGV 049","Name":"Trường Đại học Công nghiệp","StopType":"Trụ dừng","Zone":"Quận Gò Vấp","Ward":null,"AddressNo":"145","Street":"Nguyễn Thái Sơn","SupportDisability":"","Status":"Đang khai thác","Lng":106.685277,"Lat":10.822779,"Search":"TDhCn 145 NTS","Routes":"07, 148"},{"StopId":543,"Code":"QGV 050 ","Name":"Ngã ba Phạm Ngũ Lão","StopType":"Trụ dừng","Zone":"Quận Gò Vấp","Ward":null,"AddressNo":"63","Street":"Nguyễn Thái Sơn","SupportDisability":"","Status":"Đang khai thác","Lng":106.683925,"Lat":10.821045,"Search":"NbPNL 63 NTS","Routes":"07, 148"},{"StopId":60,"Code":"QGV 187 ","Name":"Cầu vượt ngã sáu Gò Vấp","StopType":"Trụ dừng","Zone":"Quận Gò Vấp","Ward":null,"AddressNo":"140-142","Street":"Phạm Ngũ Lão ","SupportDisability":"","Status":"Đang khai thác","Lng":106.681221,"Lat":10.824607,"Search":"CvnsGV 140-142 PNL","Routes":"03, 07, 103, 148, 55, 59"},{"StopId":219,"Code":"QGV 121","Name":"Cầu vượt ngã sáu Gò Vấp","StopType":"Trụ dừng","Zone":"Quận Gò Vấp","Ward":null,"AddressNo":"1001","Street":"Nguyễn Kiệm","SupportDisability":"","Status":"Đang khai thác","Lng":106.678968,"Lat":10.823738,"Search":"CvnsGV 1001 NK","Routes":"03, 07, 103, 148, 55, 59"},{"StopId":222,"Code":"QGV 122","Name":"Xóm Cháy","StopType":"Trụ dừng","Zone":"Quận Gò Vấp","Ward":null,"AddressNo":"629B","Street":"Nguyễn Kiệm","SupportDisability":"","Status":"Đã hủy","Lng":106.678743,"Lat":10.821894,"Search":"XC 629B NK","Routes":"07, 148, 59"},{"StopId":221,"Code":"QGV 123","Name":"Bệnh Viện 175","StopType":"Trụ dừng","Zone":"Quận Gò Vấp","Ward":null,"AddressNo":"883-885","Street":"Nguyễn Kiệm","SupportDisability":"","Status":"Đang khai thác","Lng":106.678727,"Lat":10.820044,"Search":"BV175 883-885 NK","Routes":"03, 07, 103, 148, 55, 59"},{"StopId":223,"Code":"QGV 124","Name":"Chợ Tân Sơn Nhất","StopType":"Trụ dừng","Zone":"Quận Gò Vấp","Ward":null,"AddressNo":"79-81","Street":"Nguyễn Kiệm","SupportDisability":"","Status":"Đang khai thác","Lng":106.678598,"Lat":10.816772,"Search":"CTSN 79-81 NK","Routes":"03, 07, 103, 148, 55, 59"},{"StopId":224,"Code":"QPN 034","Name":"Đầu công viên Gia Định","StopType":"Nhà chờ","Zone":"Quận Phú Nhuận","Ward":null,"AddressNo":"Rạp xiếc","Street":"Hoàng Minh Giám","SupportDisability":"","Status":"Đang khai thác","Lng":106.677681,"Lat":10.813442,"Search":"DcvGD Rx HMG","Routes":"03, 07, 148, 50, 55, 59"},{"StopId":225,"Code":"QPN 035","Name":"Cuối công viên Gia Định","StopType":"Nhà chờ","Zone":"Quận Phú Nhuận","Ward":null,"AddressNo":"Đối diện số 5","Street":"Hoàng Minh Giám","SupportDisability":"","Status":"Đang khai thác","Lng":106.674741,"Lat":10.809906,"Search":"CcvGD Dds5 HMG","Routes":"03, 07, 148, 50, 55, 59"},{"StopId":226,"Code":"QPN 053","Name":"Đầu Đường Đào Duy Anh","StopType":"Trụ dừng","Zone":"Quận Phú Nhuận","Ward":null,"AddressNo":"155","Street":"Đào Duy Anh","SupportDisability":"","Status":"Đang khai thác","Lng":106.674057,"Lat":10.807978,"Search":"DDDDA 155 DDA","Routes":"03, 07, 55"},{"StopId":228,"Code":"QPN 054","Name":"Cuối Đường Đào Duy Anh","StopType":"Nhà chờ","Zone":"Quận Phú Nhuận","Ward":null,"AddressNo":"7-9","Street":"Đào Duy Anh","SupportDisability":"","Status":"Đang khai thác","Lng":106.677177,"Lat":10.805891,"Search":"CDDDA 7-9 DDA","Routes":"03, 07, 55"},{"StopId":230,"Code":"QPN 023","Name":"Ngã ba Đào Duy Anh","StopType":"Trụ dừng","Zone":"Quận Phú Nhuận","Ward":null,"AddressNo":"129","Street":"Hồ Văn Huê","SupportDisability":"","Status":"Đang khai thác","Lng":106.677729,"Lat":10.804858,"Search":"NbDDA 129 HVH","Routes":"03, 07, 55"},{"StopId":227,"Code":"QPN 024","Name":"Tháp Nước","StopType":"Trụ dừng","Zone":"Quận Phú Nhuận","Ward":null,"AddressNo":"43B","Street":"Hồ Văn Huê","SupportDisability":"","Status":"Đang khai thác","Lng":106.676366,"Lat":10.802434,"Search":"TN 43B HVH","Routes":"03, 07, 55"},{"StopId":229,"Code":"QPN 025","Name":"Trung tâm hội nghị tiệc cưới White Palace","StopType":"Trụ dừng","Zone":"Quận Phú Nhuận","Ward":null,"AddressNo":"1B","Street":"Hồ Văn Huê","SupportDisability":"","Status":"Đang khai thác","Lng":106.675025,"Lat":10.800074,"Search":"TthntcWP 1B HVH","Routes":"03, 07, 55"},{"StopId":545,"Code":"QPN 026","Name":"Nhà thờ Phú Nhuận","StopType":"Trụ dừng","Zone":"Quận Phú Nhuận","Ward":null,"AddressNo":"223","Street":"Trần Huy Liệu","SupportDisability":"","Status":"Đang khai thác","Lng":106.677525,"Lat":10.798646,"Search":"NtPN 223 THL","Routes":"07"},{"StopId":549,"Code":"QPN 027","Name":"Công an Quận Phú Nhuận","StopType":"Trụ dừng","Zone":"Quận Phú Nhuận","Ward":null,"AddressNo":"139","Street":"Trần Huy Liệu","SupportDisability":"","Status":"Đang khai thác","Lng":106.677702,"Lat":10.795658,"Search":"CaQPN 139 THL","Routes":"07"},{"StopId":550,"Code":"QPN 028","Name":"Ngã tư Nguyễn Văn Trỗi","StopType":"Trụ dừng","Zone":"Quận Phú Nhuận","Ward":null,"AddressNo":"91 - 93","Street":"Trần Huy Liệu","SupportDisability":"","Status":"Đang khai thác","Lng":106.677887,"Lat":10.792667,"Search":"NtNVT 91-93 THL","Routes":"07"},{"StopId":552,"Code":"QPN 029","Name":"Bệnh viện An Sinh","StopType":"Trụ dừng","Zone":"Quận Phú Nhuận","Ward":null,"AddressNo":"25 - 27","Street":"Trần Huy Liệu","SupportDisability":"","Status":"Đang khai thác","Lng":106.677986,"Lat":10.791171,"Search":"BvAS 25-27 THL","Routes":"07"},{"StopId":554,"Code":"Q3 094","Name":"Lê Văn Sỹ","StopType":"Trụ dừng","Zone":"Quận 3","Ward":"Phường 14","AddressNo":"19","Street":"Trần Quang Diệu","SupportDisability":"","Status":"Đang khai thác","Lng":106.678123,"Lat":10.788544,"Search":"LVS 19 TQD","Routes":"07"},{"StopId":557,"Code":"Q3 047","Name":"Chợ Nguyễn Văn Trỗi","StopType":"Trụ dừng","Zone":"Quận 3","Ward":"Phường 13","AddressNo":"217","Street":"Lê Văn Sỹ","SupportDisability":"","Status":"Đang khai thác","Lng":106.679322,"Lat":10.786853,"Search":"CNVT 217 LVS","Routes":"07, 28"},{"StopId":559,"Code":"Q3 035","Name":"Trần Quốc Thảo","StopType":"Nhà chờ","Zone":"Quận 3","Ward":null,"AddressNo":"12","Street":"Kỳ Đồng","SupportDisability":"Có","Status":"Đang khai thác","Lng":106.682868,"Lat":10.78456,"Search":"TQT 12 KD","Routes":"07"},{"StopId":561,"Code":"Q3 036","Name":"Nhà thờ Dòng chúa Cứu thế","StopType":"Nhà chờ","Zone":"Quận 3","Ward":null,"AddressNo":"38","Street":"Kỳ Đồng","SupportDisability":"Có","Status":"Đang khai thác","Lng":106.681061,"Lat":10.780704,"Search":"NtDcCt 38 KD","Routes":"07"},{"StopId":565,"Code":"Q3 075","Name":"Nguyễn Thông","StopType":"Trụ dừng","Zone":"Quận 3","Ward":null,"AddressNo":"86","Street":"Nguyễn Thông","SupportDisability":"","Status":"Đang khai thác","Lng":106.679573,"Lat":10.781328,"Search":"NT 86 NT","Routes":"07"},{"StopId":560,"Code":"Q3 066","Name":"Ga Hòa Hưng","StopType":"Trụ dừng","Zone":"Quận 3","Ward":"Phường 09","AddressNo":"Đối diện Trụ sở KP3","Street":"Nguyễn Phúc Nguyên","SupportDisability":"","Status":"Đang khai thác","Lng":106.678383,"Lat":10.781528,"Search":"GHH DdTsK NPN","Routes":"07"},{"StopId":566,"Code":"Q3 067","Name":"Rạch Bùng Binh","StopType":"Trụ dừng","Zone":"Quận 3","Ward":null,"AddressNo":"Đối diện 186 (167)","Street":"Nguyễn Phúc Nguyên","SupportDisability":"","Status":"Đang khai thác","Lng":106.678888,"Lat":10.780645,"Search":"RBB Dd186( NPN","Routes":"07"},{"StopId":562,"Code":"Q3 068","Name":"Vòng xoay Dân Chủ","StopType":"Trụ dừng","Zone":"Quận 3","Ward":"Phường 10","AddressNo":"47 - 49","Street":"Nguyễn Phúc Nguyên","SupportDisability":"","Status":"Đang khai thác","Lng":106.681038,"Lat":10.778592,"Search":"VxDC 47-49 NPN","Routes":"07"},{"StopId":568,"Code":"Q10 001","Name":"Siêu thị Maximark","StopType":"Trụ dừng","Zone":"Quận 10","Ward":null,"AddressNo":"54","Street":"Đường 3/2","SupportDisability":"","Status":"Đang khai thác","Lng":106.680771,"Lat":10.777162,"Search":"StM 54 D3/2","Routes":"07, 10, 91"},{"StopId":563,"Code":"Q10 002","Name":"Bệnh viện Bình Dân","StopType":"Trụ dừng","Zone":"Quận 10","Ward":null,"AddressNo":"172","Street":"Đường 3/2","SupportDisability":"","Status":"Đang khai thác","Lng":106.678947,"Lat":10.774785,"Search":"BvBD 172 D3/2","Routes":"07, 91"},{"StopId":95,"Code":"Q10 003","Name":"Học viện Hành chính Quốc gia","StopType":"Nhà chờ","Zone":"Quận 10","Ward":null,"AddressNo":"10","Street":"Đường 3/2","SupportDisability":"","Status":"Đang khai thác","Lng":106.676951,"Lat":10.773457,"Search":"HvHcQg 10 D3/2","Routes":"07, 10, 91"},{"StopId":94,"Code":"Q10 004","Name":"Học viện Hành chính Quốc gia","StopType":"Nhà chờ","Zone":"Quận 10","Ward":null,"AddressNo":"Kế 10A","Street":"Đường 3/2","SupportDisability":"","Status":"Đang khai thác","Lng":106.675701,"Lat":10.772661,"Search":"HvHcQg K10A D3/2","Routes":"07, 91"},{"StopId":97,"Code":"Q10 005","Name":"Nhà hát Hòa Bình","StopType":"Nhà chờ","Zone":"Quận 10","Ward":null,"AddressNo":"240","Street":"Đường 3/2","SupportDisability":"","Status":"Đang khai thác","Lng":106.674202,"Lat":10.771712,"Search":"NhHB 240 D3/2","Routes":"07, 91"},{"StopId":96,"Code":"Q10 006","Name":"Nhà thờ Vinh Sơn","StopType":"Trụ dừng","Zone":"Quận 10","Ward":null,"AddressNo":"270","Street":"Đường 3/2","SupportDisability":"","Status":"Đang khai thác","Lng":106.67215,"Lat":10.770521,"Search":"NtVS 270 D3/2","Routes":"07"},{"StopId":99,"Code":"Q10 007","Name":"Bệnh viện Nhi Đồng 1","StopType":"Trụ dừng","Zone":"Quận 10","Ward":null,"AddressNo":"356","Street":"Đường 3/2","SupportDisability":"","Status":"Đang khai thác","Lng":106.670364,"Lat":10.769578,"Search":"BvND1 356 D3/2","Routes":"07"},{"StopId":564,"Code":"Q10 075","Name":"Học viện Quân y","StopType":"Trụ dừng","Zone":"Quận 10","Ward":null,"AddressNo":"527","Street":"Nguyễn Tri Phương","SupportDisability":"","Status":"Đang khai thác","Lng":106.667259,"Lat":10.766769,"Search":"HvQy 527 NTP","Routes":"07, 59"},{"StopId":567,"Code":"Q10 076","Name":"Chợ Nhật Tảo","StopType":"Trụ dừng","Zone":"Quận 10","Ward":null,"AddressNo":"475","Street":"Nguyễn Tri Phương","SupportDisability":"","Status":"Đang khai thác","Lng":106.667664,"Lat":10.764991,"Search":"CNT 475 NTP","Routes":"07, 59"},{"StopId":570,"Code":"Q10 077","Name":"Trường Hoàng Văn Thụ","StopType":"Trụ dừng","Zone":"Quận 10","Ward":null,"AddressNo":"399","Street":"Nguyễn Tri Phương","SupportDisability":"","Status":"Đang khai thác","Lng":106.668015,"Lat":10.763371,"Search":"THVT 399 NTP","Routes":"07, 59"},{"StopId":571,"Code":"Q10 078","Name":"Đại học kinh tế","StopType":"Trụ dừng","Zone":"Quận 10","Ward":null,"AddressNo":"279","Street":"Nguyễn Tri Phương","SupportDisability":"","Status":"Đang khai thác","Lng":106.668488,"Lat":10.761049,"Search":"Dhkt 279 NTP","Routes":"07, 10, 59"},{"StopId":569,"Code":"Q5 036","Name":"Ngô Gia Tự","StopType":"Nhà chờ","Zone":"Quận 5","Ward":null,"AddressNo":"500","Street":"Ngô Gia Tự","SupportDisability":"","Status":"Đang khai thác","Lng":106.668062,"Lat":10.758801,"Search":"NGT 500 NGT","Routes":"07, 150"},{"StopId":573,"Code":"Q5 035","Name":"Trung tâm giáo dục thường xuyên","StopType":"Nhà chờ","Zone":"Quận 5","Ward":null,"AddressNo":"546","Street":"Ngô Gia Tự","SupportDisability":"","Status":"Đang khai thác","Lng":106.667016,"Lat":10.757331,"Search":"Ttgdtx 546 NGT","Routes":"07, 150"},{"StopId":433,"Code":"Q5 017","Name":"Bệnh viện Phạm Ngọc Thạch","StopType":"Nhà chờ","Zone":"Quận 5","Ward":null,"AddressNo":"120","Street":"Hồng Bàng","SupportDisability":"","Status":"Đang khai thác","Lng":106.664511,"Lat":10.755897,"Search":"BvPNT 120 HB","Routes":"06, 07, 139, 150, 56, 68, 70-3, 91"},{"StopId":434,"Code":"Q5 018","Name":"Hùng Vương Plaza","StopType":"Nhà chờ","Zone":"Quận 5","Ward":null,"AddressNo":"132","Street":"Hồng Bàng","SupportDisability":"","Status":"Đang khai thác","Lng":106.661072,"Lat":10.755196,"Search":"HVP 132 HB","Routes":"06, 07, 08, 10, 139, 150, 56, 62, 68, 91"},{"StopId":436,"Code":"Q5 019","Name":"Bệnh viện Chợ Rẫy","StopType":"Trụ dừng","Zone":"Quận 5","Ward":null,"AddressNo":"172","Street":"Hồng Bàng","SupportDisability":"","Status":"Đang khai thác","Lng":106.659501,"Lat":10.754875,"Search":"BvCR 172 HB","Routes":"06, 07, 08, 139, 150, 56, 62, 68, 91"},{"StopId":397,"Code":"Q5 013","Name":"Rạp Đại Quang","StopType":"Nhà chờ","Zone":"Quận 5","Ward":null,"AddressNo":"81","Street":"Châu Văn Liêm","SupportDisability":"","Status":"Đang khai thác","Lng":106.658792,"Lat":10.752445,"Search":"RDQ 81 CVL","Routes":"05, 07, 08, 45, 56, 62"},{"StopId":137,"Code":"Q5 014","Name":"Bưu điện Quận 5","StopType":"Ô sơn","Zone":"Quận 5","Ward":null,"AddressNo":"13-15","Street":"Châu Văn Liêm","SupportDisability":"","Status":"Đang khai thác","Lng":106.658894,"Lat":10.751381,"Search":"BdQ5 13-15 CVL","Routes":"01, 05, 07, 08, 45, 56, 62"},{"StopId":138,"Code":"Q5 015","Name":"Hải Thượng Lãn Ông","StopType":"Trụ dừng","Zone":"Quận 5","Ward":null,"AddressNo":"210-212","Street":"Hải Thượng Lãn Ông","SupportDisability":"","Status":"Đang khai thác","Lng":106.658358,"Lat":10.750948,"Search":"HTLO 210-212 HTLO","Routes":"01, 05, 07, 25, 39, 47, 56"},{"StopId":139,"Code":"Q5 102","Name":"Chợ Kim Biên","StopType":"Trụ dừng","Zone":"Quận 5","Ward":null,"AddressNo":"5","Street":"Trang Tử","SupportDisability":"","Status":"Đang khai thác","Lng":106.655086,"Lat":10.751128,"Search":"CKB 5 TT","Routes":"01, 05, 07, 25, 39, 47, 56"},{"StopId":8,"Code":"BX14","Name":"Bến xe Chợ Lớn","StopType":"Bến xe","Zone":"Quận 5","Ward":null,"AddressNo":"GA HKXB CHO LON","Street":"Lê Quang Sung","SupportDisability":"","Status":"Đang khai thác","Lng":106.6525650024414,"Lat":10.751253128051758,"Search":"BxCL GHCL LQS","Routes":"01, 05, 06, 07, 09, 150, 23, 47, 56, 62-1, 62-10, 62-7, 62-8, 81, 94"}],"RouteId":"7","RouteVarId":"14"}
{"Stops":[{"StopId":33,"Code":"BX 06","Name":"Công Trường Mê Linh","StopType":"Bến xe","Zone":"Quận 1","Ward":null,"AddressNo":"Công trường Mê Linh","Street":"Thi Sách","SupportDisability":"","Status":"Đang khai thác","Lng":106.705856,"Lat":10.77679,"Search":"CTML CtML TS","Routes":"01"},{"StopId":79,"Code":"Q1 031","Name":"Bến Bạch Đằng","StopType":"Trụ dừng","Zone":"Quận 1","Ward":null,"AddressNo":"21","Street":"Tôn Đức Thắng","SupportDisability":"","Status":"Đang khai thác","Lng":106.706359,"Lat":10.773299,"Search":"BBD 21 TDT","Routes":"01, 03, 120, 19, 45, 53, 56, 61-6, 88, D1, DL01"},{"StopId":76,"Code":"Q1 020","Name":"Cục Hải Quan Thành Phố","StopType":"Nhà chờ","Zone":"Quận 1","Ward":"Phường Bến Nghé","AddressNo":"2-4","Street":"Hàm Nghi","SupportDisability":"","Status":"Đang khai thác","Lng":106.705549,"Lat":10.770885,"Search":"CHQTP 2-4 HN","Routes":"01, 03, 123, 124, 19, 45, 56, 61-6, 88, D1"},{"StopId":3691,"Code":"Q1 193","Name":"Chợ Cũ","StopType":"Nhà chờ","Zone":"Quận 1","Ward":"Phường Bến Nghé","AddressNo":"84","Street":"Hàm Nghi","SupportDisability":"","Status":"Đang khai thác","Lng":106.703108,"Lat":10.771006,"Search":"CC 84 HN","Routes":"01, 03, 19, 45, 56, 86, 88"},{"StopId":2028,"Code":"Q1 194","Name":"Trường Cao Thắng","StopType":"Nhà chờ","Zone":"Quận 1","Ward":"Phường Bến Nghé","AddressNo":"Trường Cao Thắng","Street":"Hàm Nghi","SupportDisability":"","Status":"Đang khai thác","Lng":106.701853,"Lat":10.771043,"Search":"TCT TCT HN","Routes":"01, 03, 102, 19, 20, 34, 38, 39, 45, 56, 75, 86, 88"},{"StopId":4223,"Code":"Q1 102","Name":"Trạm Trung chuyển trên đường Hàm Nghi","StopType":"Nhà chờ","Zone":"Quận 1","Ward":"Phường Bến Thành","AddressNo":"Hàm Nghi 4","Street":"Hàm Nghi","SupportDisability":"","Status":"Đang khai thác","Lng":106.699471,"Lat":10.771075,"Search":"TTctdHN HN4 HN","Routes":"01, 102, 44, 65, 86"},{"StopId":7564,"Code":"Q1 196","Name":"Bảo tàng Mỹ Thuật","StopType":"Trụ dừng","Zone":"Quận 1","Ward":"Phường Bến Nghé","AddressNo":"56","Street":"Nguyễn Thái Bình","SupportDisability":"Có","Status":"Đang khai thác","Lng":106.699669,"Lat":10.769251,"Search":"BtMT 56 NTB","Routes":"01, 102, 34, 38, 39, 44, 86"},{"StopId":120,"Code":"Q1 124","Name":"Trường Ernst Thalmann","StopType":"Nhà chờ","Zone":"Quận 1","Ward":null,"AddressNo":"8","Street":"Trần Hưng Đạo","SupportDisability":"","Status":"Đang khai thác","Lng":106.695923,"Lat":10.768772,"Search":"TET 8 THD","Routes":"01, 139, 28, 45, 69"},{"StopId":121,"Code":"Q1 125","Name":"KTX Trần Hưng Đạo","StopType":"Nhà chờ","Zone":"Quận 1","Ward":null,"AddressNo":"10","Street":"Trần Hưng Đạo","SupportDisability":"","Status":"Đang khai thác","Lng":106.694695,"Lat":10.767363,"Search":"KTHD 10 THD","Routes":"01, 139, 152, 45, 56"},{"StopId":122,"Code":"Q1 126","Name":"Rạp Hưng Đạo","StopType":"Nhà chờ","Zone":"Quận 1","Ward":null,"AddressNo":"112","Street":"Trần Hưng Đạo","SupportDisability":"","Status":"Đang khai thác","Lng":106.693375,"Lat":10.765832,"Search":"RHD 112 THD","Routes":"01, 139, 152, 45, 56"},{"StopId":123,"Code":"Q1 127","Name":"Bệnh viện Răng Hàm Mặt","StopType":"Nhà chờ","Zone":"Quận 1","Ward":null,"AddressNo":"150","Street":"Trần Hưng Đạo","SupportDisability":"","Status":"Đang khai thác","Lng":106.691696,"Lat":10.763918,"Search":"BvRHM 150 THD","Routes":"01, 139, 152"},{"StopId":124,"Code":"Q1 128","Name":"Trần Đình Xu","StopType":"Trụ dừng","Zone":"Quận 1","Ward":null,"AddressNo":"210 - 212","Street":"Trần Hưng Đạo","SupportDisability":"","Status":"Đang khai thác","Lng":106.690247,"Lat":10.762262,"Search":"TDX 210-212 THD","Routes":"01, 139, 152"},{"StopId":125,"Code":"Q1 129","Name":"Tổng Cty Samco","StopType":"Nhà chờ","Zone":"Quận 1","Ward":null,"AddressNo":"262","Street":"Trần Hưng Đạo","SupportDisability":"","Status":"Đang khai thác","Lng":106.687798,"Lat":10.759409,"Search":"TCS 262 THD","Routes":"01, 139, 152"},{"StopId":126,"Code":"Q1 130","Name":"Chợ Nanci","StopType":"Trụ dừng","Zone":"Quận 1","Ward":null,"AddressNo":"290","Street":"Trần Hưng Đạo","SupportDisability":"","Status":"Đang khai thác","Lng":106.686035,"Lat":10.757467,"Search":"CN 290 THD","Routes":"01, 139, 152"},{"StopId":127,"Code":"Q5 083","Name":"Nguyễn Biểu","StopType":"Trụ dừng","Zone":"Quận 5","Ward":null,"AddressNo":"454","Street":"Trần Hưng Đạo","SupportDisability":"","Status":"Đang khai thác","Lng":106.68283,"Lat":10.755887,"Search":"NB 454 THD","Routes":"01"},{"StopId":128,"Code":"Q5 084","Name":"Trường Cao đẳng Kinh tế Đối ngoại","StopType":"Nhà chờ","Zone":"Quận 5","Ward":null,"AddressNo":"520","Street":"Trần Hưng Đạo","SupportDisability":"","Status":"Đang khai thác","Lng":106.681833,"Lat":10.755623,"Search":"TCdKtDn 520 THD","Routes":"01"},{"StopId":129,"Code":"Q5 085","Name":"Trần Bình Trọng","StopType":"Trụ dừng","Zone":"Quận 5","Ward":null,"AddressNo":"560(564)","Street":"Trần Hưng Đạo","SupportDisability":"","Status":"Đang khai thác","Lng":106.679794,"Lat":10.755064,"Search":"TBT 560(564) THD","Routes":"01"},{"StopId":130,"Code":"Q5 086","Name":"Bệnh viện Chấn thương Chỉnh hình","StopType":"Nhà chờ","Zone":"Quận 5","Ward":null,"AddressNo":"696","Street":"Trần Hưng Đạo","SupportDisability":"","Status":"Đang khai thác","Lng":106.677847,"Lat":10.754537,"Search":"BvCtCh 696 THD","Routes":"01"},{"StopId":131,"Code":"Q5 087","Name":"Rạp Đồng Tháp","StopType":"Trụ dừng","Zone":"Quận 5","Ward":null,"AddressNo":"780","Street":"Trần Hưng Đạo","SupportDisability":"","Status":"Đang khai thác","Lng":106.675825,"Lat":10.753984,"Search":"RDT 780 THD","Routes":"01"},{"StopId":134,"Code":"Q5 088","Name":"Rạp Đống Đa","StopType":"Trụ dừng","Zone":"Quận 5","Ward":null,"AddressNo":"882","Street":"Trần Hưng Đạo","SupportDisability":"","Status":"Đang khai thác","Lng":106.674237,"Lat":10.753573,"Search":"RDD 882 THD","Routes":"01"},{"StopId":132,"Code":"Q5 089","Name":"Đồng Khánh","StopType":"Trụ dừng","Zone":"Quận 5","Ward":null,"AddressNo":"18","Street":"Trần Hưng Đạo","SupportDisability":"","Status":"Đang khai thác","Lng":106.67149,"Lat":10.752983,"Search":"DK 18 THD","Routes":"01"},{"StopId":14,"Code":"Q5 099","Name":"Nhà Văn hóa Quận 5","StopType":"Trụ dừng","Zone":"Quận 5","Ward":null,"AddressNo":"388","Street":"Trần Phú","SupportDisability":"","Status":"Đang khai thác","Lng":106.668588,"Lat":10.753025,"Search":"NVhQ5 388 TP","Routes":"01, 59"},{"StopId":136,"Code":"Q5 090","Name":"Ngô Quyền","StopType":"Biển treo","Zone":"Quận 5","Ward":null,"AddressNo":"212","Street":"Trần Hưng Đạo","SupportDisability":"","Status":"Đang khai thác","Lng":106.666174,"Lat":10.752477,"Search":"NQ 212 THD","Routes":"01"},{"StopId":133,"Code":"Q5 091","Name":"Tản Đà","StopType":"Trụ dừng","Zone":"Quận 5","Ward":null,"AddressNo":"274","Street":"Trần Hưng Đạo","SupportDisability":"","Status":"Đang khai thác","Lng":106.663706,"Lat":10.752292,"Search":"TD 274 THD","Routes":"01"},{"StopId":135,"Code":"Q5 092","Name":"Triệu Quang Phục","StopType":"Trụ dừng","Zone":"Quận 5","Ward":"Phường 11","AddressNo":"390","Street":"Trần Hưng Đạo","SupportDisability":"","Status":"Đang khai thác","Lng":106.660536,"Lat":10.75206,"Search":"TQP 390 THD","Routes":"01"},{"StopId":137,"Code":"Q5 014","Name":"Bưu điện Quận 5","StopType":"Ô sơn","Zone":"Quận 5","Ward":null,"AddressNo":"13-15","Street":"Châu Văn Liêm","SupportDisability":"","Status":"Đang khai thác","Lng":106.658894,"Lat":10.751381,"Search":"BdQ5 13-15 CVL","Routes":"01, 05, 07, 08, 45, 56, 62"},{"StopId":138,"Code":"Q5 015","Name":"Hải Thượng Lãn Ông","StopType":"Trụ dừng","Zone":"Quận 5","Ward":null,"AddressNo":"210-212","Street":"Hải Thượng Lãn Ông","SupportDisability":"","Status":"Đang khai thác","Lng":106.658358,"Lat":10.750948,"Search":"HTLO 210-212 HTLO","Routes":"01, 05, 07, 25, 39, 47, 56"},{"StopId":139,"Code":"Q5 102","Name":"Chợ Kim Biên","StopType":"Trụ dừng","Zone":"Quận 5","Ward":null,"AddressNo":"5","Street":"Trang Tử","SupportDisability":"","Status":"Đang khai thác","Lng":106.655086,"Lat":10.751128,"Search":"CKB 5 TT","Routes":"01, 05, 07, 25, 39, 47, 56"},{"StopId":8,"Code":"BX14","Name":"Bến xe Chợ Lớn","StopType":"Bến xe","Zone":"Quận 5","Ward":null,"AddressNo":"GA HKXB CHO LON","Street":"Lê Quang Sung","SupportDisability":"","Status":"Đang khai thác","Lng":106.6525650024414,"Lat":10.751253128051758,"Search":"BxCL GHCL LQS","Routes":"01, 05, 06, 07, 09, 150, 23, 47, 56, 62-1, 62-10, 62-7, 62-8, 81, 94"}],"RouteId":"1","RouteVarId":"1"}
{"Stops":[{"StopId":75,"Code":"BX38","Name":"THẠNH LỘC","StopType":"Bến xe","Zone":"Quận 12","Ward":null,"AddressNo":"Thửa đất số 413 tờ bản đồ số 04, phường Thạnh Xuân, Quận 12","Street":"Thạnh Lộc 52","SupportDisability":"","Status":"Đang khai thác","Lng":106.673427,"Lat":10.89288,"Search":"TL Tds413tbds04,pTXQ12 TL52","Routes":"03"},{"StopId":3255,"Code":"Q12 235","Name":"Chợ Đường","StopType":"Trụ dừng","Zone":"Quận 12","Ward":null,"AddressNo":"Đối diện 10 (64/4C)","Street":"Bùi Công Trừng","SupportDisability":"","Status":"Đang khai thác","Lng":106.689048,"Lat":10.897452,"Search":"CD Dd10( BCT","Routes":"03, 58"},{"StopId":3208,"Code":"Q12 045","Name":"Chùa Báo Ấn","StopType":"Trụ dừng","Zone":"Quận 12","Ward":null,"AddressNo":"921","Street":"Hà Huy Giáp","SupportDisability":"","Status":"Đang khai thác","Lng":106.688485,"Lat":10.89485,"Search":"CBA 921 HHG","Routes":"03, 58"},{"StopId":3257,"Code":"Q12 046","Name":"Cầu Phú Long","StopType":"Trụ dừng","Zone":"Quận 12","Ward":null,"AddressNo":"793 (đối diện 487A)","Street":"Hà Huy Giáp","SupportDisability":"","Status":"Đang khai thác","Lng":106.687229,"Lat":10.892611,"Search":"CPL 793(d487A) HHG","Routes":"03, 58"},{"StopId":3205,"Code":"Q12 044","Name":"Cầu Ông Dung","StopType":"Trụ dừng","Zone":"Quận 12","Ward":null,"AddressNo":"307/39","Street":"Hà Huy Giáp","SupportDisability":"","Status":"Đang khai thác","Lng":106.685105,"Lat":10.888945,"Search":"COD 307/39 HHG","Routes":"03, 58"},{"StopId":3261,"Code":"Q12 047","Name":"Cây xăng Thanh Bình","StopType":"Trụ dừng","Zone":"Quận 12","Ward":null,"AddressNo":"22/3","Street":"Hà Huy Giáp","SupportDisability":"","Status":"Đang khai thác","Lng":106.682879,"Lat":10.886327,"Search":"CxTB 22/3 HHG","Routes":"03, 58"},{"StopId":3260,"Code":"Q12 048","Name":"Trường Nguyễn Văn Thệ","StopType":"Trụ dừng","Zone":"Quận 12","Ward":null,"AddressNo":"308/27","Street":"Hà Huy Giáp","SupportDisability":"","Status":"Đang khai thác","Lng":106.680905,"Lat":10.88423,"Search":"TNVT 308/27 HHG","Routes":"03, 58"},{"StopId":3262,"Code":"Q12 049","Name":"Trường Điện Lực 2","StopType":"Trụ dừng","Zone":"Quận 12","Ward":null,"AddressNo":"327/27","Street":"Hà Huy Giáp","SupportDisability":"","Status":"Đang khai thác","Lng":106.679226,"Lat":10.881117,"Search":"TDL2 327/27 HHG","Routes":"03, 58"},{"StopId":3263,"Code":"Q12 050","Name":"Chợ Thạnh Xuân","StopType":"Trụ dừng","Zone":"Quận 12","Ward":null,"AddressNo":"59/2 ","Street":"Hà Huy Giáp","SupportDisability":"","Status":"Đang khai thác","Lng":106.678265,"Lat":10.878983,"Search":"CTX 59/2 HHG","Routes":"03, 58"},{"StopId":204,"Code":"Q12 051","Name":"Ga ra Thanh Hậu","StopType":"Trụ dừng","Zone":"Quận 12","Ward":null,"AddressNo":"79C","Street":"Hà Huy Giáp","SupportDisability":"","Status":"Đang khai thác","Lng":106.67672,"Lat":10.875074,"Search":"GrTH 79C HHG","Routes":"03, 58"},{"StopId":205,"Code":"Q12 052","Name":"Vườn kiểng Quang Dũng","StopType":"Trụ dừng","Zone":"Quận 12","Ward":null,"AddressNo":"59/4","Street":"Hà Huy Giáp","SupportDisability":"","Status":"Đang khai thác","Lng":106.676785,"Lat":10.871977,"Search":"VkQD 59/4 HHG","Routes":"03, 58"},{"StopId":206,"Code":"Q12 053","Name":"Cây xăng Tài Lộc","StopType":"Ô sơn","Zone":"Quận 12","Ward":null,"AddressNo":"331","Street":"Hà Huy Giáp","SupportDisability":"","Status":"Đang khai thác","Lng":106.678233,"Lat":10.868015,"Search":"CxTL 331 HHG","Routes":"03, 58"},{"StopId":207,"Code":"Q12 054","Name":"Đình thần Giao Khẩu","StopType":"Trụ dừng","Zone":"Quận 12","Ward":null,"AddressNo":"297","Street":"Hà Huy Giáp","SupportDisability":"","Status":"Đang khai thác","Lng":106.680341,"Lat":10.864886,"Search":"DtGK 297 HHG","Routes":"03, 58"},{"StopId":208,"Code":"Q12 055","Name":"Ngã tư Ga","StopType":"Trụ dừng","Zone":"Quận 12","Ward":null,"AddressNo":"141-143A","Street":"Hà Huy Giáp","SupportDisability":"","Status":"Đang khai thác","Lng":106.679649,"Lat":10.857984,"Search":"NtG 141-143A HHG","Routes":"03, 32, 59"},{"StopId":211,"Code":"Q12 056","Name":"Nhà hàng Bến Xưa","StopType":"Trụ dừng","Zone":"Quận 12","Ward":null,"AddressNo":"205","Street":"Hà Huy Giáp","SupportDisability":"","Status":"Đang khai thác","Lng":106.679006,"Lat":10.853474,"Search":"NhBX 205 HHG","Routes":"03, 32, 59"},{"StopId":209,"Code":"QGV 112","Name":"Cầu An Lộc","StopType":"Trụ dừng","Zone":"Quận Gò Vấp","Ward":null,"AddressNo":"523-525","Street":"Nguyễn Oanh","SupportDisability":"","Status":"Đang khai thác","Lng":106.678539,"Lat":10.848838,"Search":"CAL 523-525 NO","Routes":"03, 32, 59"},{"StopId":210,"Code":"QGV 113","Name":"Bến Đò","StopType":"Trụ dừng","Zone":"Quận Gò Vấp","Ward":null,"AddressNo":"451","Street":"Nguyễn Oanh","SupportDisability":"","Status":"Đang khai thác","Lng":106.67826,"Lat":10.847015,"Search":"BD 451 NO","Routes":"03, 32, 59"},{"StopId":212,"Code":"QGV 114","Name":"Bưu điện An Nhơn","StopType":"Trụ dừng","Zone":"Quận Gò Vấp","Ward":null,"AddressNo":"357","Street":"Nguyễn Oanh","SupportDisability":"","Status":"Đang khai thác","Lng":106.677214,"Lat":10.843975,"Search":"BdAN 357 NO","Routes":"03, 32, 59"},{"StopId":214,"Code":"QGV 115","Name":"Ngã tư An Nhơn","StopType":"Trụ dừng","Zone":"Quận Gò Vấp","Ward":null,"AddressNo":"257","Street":"Nguyễn Oanh","SupportDisability":"","Status":"Đang khai thác","Lng":106.676313,"Lat":10.841436,"Search":"NtAN 257 NO","Routes":"03, 59"},{"StopId":215,"Code":"QGV 116","Name":"Đài Liệt sĩ","StopType":"Trụ dừng","Zone":"Quận Gò Vấp","Ward":null,"AddressNo":"197","Street":"Nguyễn Oanh","SupportDisability":"","Status":"Đang khai thác","Lng":106.675707,"Lat":10.839518,"Search":"DLs 197 NO","Routes":"03, 59"},{"StopId":216,"Code":"QGV 117","Name":"Trường Vinhempic","StopType":"Nhà chờ","Zone":"Quận Gò Vấp","Ward":null,"AddressNo":"189 (đối diện 234)","Street":"Nguyễn Oanh","SupportDisability":"","Status":"Đang khai thác","Lng":106.675395,"Lat":10.836978,"Search":"TV 189(d234) NO","Routes":"03, 59"},{"StopId":218,"Code":"QGV 118","Name":"Cư xá Lam Sơn","StopType":"Nhà chờ","Zone":"Quận Gò Vấp","Ward":null,"AddressNo":"189 (đối diện A4)","Street":"Nguyễn Oanh","SupportDisability":"","Status":"Đang khai thác","Lng":106.675535,"Lat":10.834939,"Search":"CxLS 189(dA NO","Routes":"03, 59"},{"StopId":217,"Code":"QGV 119","Name":"Ngã tư Phan Văn Trị","StopType":"Trụ dừng","Zone":"Quận Gò Vấp","Ward":null,"AddressNo":"93 (2A)","Street":"Nguyễn Oanh","SupportDisability":"","Status":"Đang khai thác","Lng":106.676919,"Lat":10.83163,"Search":"NtPVT 93( NO","Routes":"03, 59"},{"StopId":220,"Code":"QGV 120","Name":"Cầu vượt ngã sáu Gò Vấp","StopType":"Trụ dừng","Zone":"Quận Gò Vấp","Ward":null,"AddressNo":"27-29","Street":"Nguyễn Oanh","SupportDisability":"","Status":"Đang khai thác","Lng":106.678839,"Lat":10.828532,"Search":"CvnsGV 27-29 NO","Routes":"03, 59"},{"StopId":219,"Code":"QGV 121","Name":"Cầu vượt ngã sáu Gò Vấp","StopType":"Trụ dừng","Zone":"Quận Gò Vấp","Ward":null,"AddressNo":"1001","Street":"Nguyễn Kiệm","SupportDisability":"","Status":"Đang khai thác","Lng":106.678968,"Lat":10.823738,"Search":"CvnsGV 1001 NK","Routes":"03, 07, 103, 148, 55, 59"},{"StopId":221,"Code":"QGV 123","Name":"Bệnh Viện 175","StopType":"Trụ dừng","Zone":"Quận Gò Vấp","Ward":null,"AddressNo":"883-885","Street":"Nguyễn Kiệm","SupportDisability":"","Status":"Đang khai thác","Lng":106.678727,"Lat":10.820044,"Search":"BV175 883-885 NK","Routes":"03, 07, 103, 148, 55, 59"},{"StopId":223,"Code":"QGV 124","Name":"Chợ Tân Sơn Nhất","StopType":"Trụ dừng","Zone":"Quận Gò Vấp","Ward":null,"AddressNo":"79-81","Street":"Nguyễn Kiệm","SupportDisability":"","Status":"Đang khai thác","Lng":106.678598,"Lat":10.816772,"Search":"CTSN 79-81 NK","Routes":"03, 07, 103, 148, 55, 59"},{"StopId":224,"Code":"QPN 034","Name":"Đầu công viên Gia Định","StopType":"Nhà chờ","Zone":"Quận Phú Nhuận","Ward":null,"AddressNo":"Rạp xiếc","Street":"Hoàng Minh Giám","SupportDisability":"","Status":"Đang khai thác","Lng":106.677681,"Lat":10.813442,"Search":"DcvGD Rx HMG","Routes":"03, 07, 148, 50, 55, 59"},{"StopId":225,"Code":"QPN 035","Name":"Cuối công viên Gia Định","StopType":"Nhà chờ","Zone":"Quận Phú Nhuận","Ward":null,"AddressNo":"Đối diện số 5","Street":"Hoàng Minh Giám","SupportDisability":"","Status":"Đang khai thác","Lng":106.674741,"Lat":10.809906,"Search":"CcvGD Dds5 HMG","Routes":"03, 07, 148, 50, 55, 59"},{"StopId":226,"Code":"QPN 053","Name":"Đầu Đường Đào Duy Anh","StopType":"Trụ dừng","Zone":"Quận Phú Nhuận","Ward":null,"AddressNo":"155","Street":"Đào Duy Anh","SupportDisability":"","Status":"Đang khai thác","Lng":106.674057,"Lat":10.807978,"Search":"DDDDA 155 DDA","Routes":"03, 07, 55"},{"StopId":228,"Code":"QPN 054","Name":"Cuối Đường Đào Duy Anh","StopType":"Nhà chờ","Zone":"Quận Phú Nhuận","Ward":null,"AddressNo":"7-9","Street":"Đào Duy Anh","SupportDisability":"","Status":"Đang khai thác","Lng":106.677177,"Lat":10.805891,"Search":"CDDDA 7-9 DDA","Routes":"03, 07, 55"},{"StopId":230,"Code":"QPN 023","Name":"Ngã ba Đào Duy Anh","StopType":"Trụ dừng","Zone":"Quận Phú Nhuận","Ward":null,"AddressNo":"129","Street":"Hồ Văn Huê","SupportDisability":"","Status":"Đang khai thác","Lng":106.677729,"Lat":10.804858,"Search":"NbDDA 129 HVH","Routes":"03, 07, 55"},{"StopId":227,"Code":"QPN 024","Name":"Tháp Nước","StopType":"Trụ dừng","Zone":"Quận Phú Nhuận","Ward":null,"AddressNo":"43B","Street":"Hồ Văn Huê","SupportDisability":"","Status":"Đang khai thác","Lng":106.676366,"Lat":10.802434,"Search":"TN 43B HVH","Routes":"03, 07, 55"},{"StopId":229,"Code":"QPN 025","Name":"Trung tâm hội nghị tiệc cưới White Palace","StopType":"Trụ dừng","Zone":"Quận Phú Nhuận","Ward":null,"AddressNo":"1B","Street":"Hồ Văn Huê","SupportDisability":"","Status":"Đang khai thác","Lng":106.675025,"Lat":10.800074,"Search":"TthntcWP 1B HVH","Routes":"03, 07, 55"},{"StopId":232,"Code":"QPN 009","Name":"Ngã tư Phú Nhuận","StopType":"Trụ dừng","Zone":"Quận Phú Nhuận","Ward":null,"AddressNo":"59","Street":"Hoàng Văn Thụ","SupportDisability":"","Status":"Đang khai thác","Lng":106.679354,"Lat":10.799088,"Search":"NtPN 59 HVT","Routes":"03, 08, 104, 55, 64"},{"StopId":4755,"Code":"QPN 057","Name":"Trường Cao đẳng Kinh tế Đối ngoại","StopType":"Ô sơn","Zone":"Quận Phú Nhuận","Ward":"Phường 01","AddressNo":"335","Street":"Phan Đình Phùng","SupportDisability":"Có","Status":"Đang khai thác","Lng":106.680567,"Lat":10.798345,"Search":"TCdKtDn 335 PDP","Routes":"03"},{"StopId":4756,"Code":"QPN 058","Name":"Chợ Phú Nhuận","StopType":"Ô sơn","Zone":"Quận Phú Nhuận","Ward":"Phường 01","AddressNo":"175-177","Street":"Phan Đình Phùng","SupportDisability":"Có","Status":"Đang khai thác","Lng":106.682605,"Lat":10.795194,"Search":"CPN 175-177 PDP","Routes":"03"},{"StopId":4757,"Code":"QPN 059","Name":"Cầu Kiệu","StopType":"Ô sơn","Zone":"Quận Phú Nhuận","Ward":"Phường 01","AddressNo":"55","Street":"Phan Đình Phùng","SupportDisability":"Có","Status":"Đang khai thác","Lng":106.685277,"Lat":10.793081,"Search":"CK 55 PDP","Routes":"03"},{"StopId":231,"Code":"Q3 029","Name":"Trần Quang Khải","StopType":"Trụ dừng","Zone":"Quận 3","Ward":"Phường 08","AddressNo":"423 A","Street":"Hai Bà Trưng","SupportDisability":"","Status":"Đang khai thác","Lng":106.68795,"Lat":10.790939,"Search":"TQK 423A HBT","Routes":"03"},{"StopId":234,"Code":"Q3 030","Name":"Chợ Tân Định","StopType":"Trụ dừng","Zone":"Quận 3","Ward":null,"AddressNo":"295","Street":"Hai Bà Trưng","SupportDisability":"","Status":"Đang khai thác","Lng":106.690445,"Lat":10.788972,"Search":"CTD 295 HBT","Routes":"03, 31, 36"},{"StopId":233,"Code":"Q3 031","Name":"Công viên Lê Văn Tám","StopType":"Trụ dừng","Zone":"Quận 3","Ward":"Phường 06","AddressNo":"243","Street":"Hai Bà Trưng","SupportDisability":"","Status":"Đang khai thác","Lng":106.692653,"Lat":10.787174,"Search":"CvLVT 243 HBT","Routes":"03, 18, 31"},{"StopId":235,"Code":"Q3 032","Name":"Trần Cao Vân","StopType":"Trụ dừng","Zone":"Quận 3","Ward":null,"AddressNo":"157","Street":"Hai Bà Trưng","SupportDisability":"","Status":"Đang khai thác","Lng":106.696625,"Lat":10.784023,"Search":"TCV 157 HBT","Routes":"03, 18"},{"StopId":236,"Code":"Q1 065","Name":"Lê Duẩn","StopType":"Nhà chờ","Zone":"Quận 1","Ward":"Phường Bến Nghé","AddressNo":"Đối diện Lãnh sự quán Pháp","Street":"Hai Bà Trưng","SupportDisability":"","Status":"Đang khai thác","Lng":106.69902,"Lat":10.78191,"Search":"LD DdLsqP HBT","Routes":"03"},{"StopId":237,"Code":"Q1 066","Name":"Bệnh viện Nhi Đồng 2","StopType":"Nhà chờ","Zone":"Quận 1","Ward":null,"AddressNo":"Kế 115","Street":"Hai Bà Trưng","SupportDisability":"","Status":"Đang khai thác","Lng":106.701744,"Lat":10.779385,"Search":"BvND2 K115 HBT","Routes":"03, 19, 45"},{"StopId":238,"Code":"Q1 067","Name":"Nhà Hát Thành Phố","StopType":"Trụ dừng","Zone":"Quận 1","Ward":null,"AddressNo":"101","Street":"Hai Bà Trưng","SupportDisability":"","Status":"Đang khai thác","Lng":106.70351,"Lat":10.777873,"Search":"NHTP 101 HBT","Routes":"03, 19, 45"},{"StopId":239,"Code":"Q1 068","Name":"Công Trường Mê Linh","StopType":"Trụ dừng","Zone":"Quận 1","Ward":null,"AddressNo":"Đối diện 2","Street":"Hai Bà Trưng","SupportDisability":"","Status":"Đang khai thác","Lng":106.705635,"Lat":10.775976,"Search":"CTML Dd2 HBT","Routes":"03, 19, 45"},{"StopId":79,"Code":"Q1 031","Name":"Bến Bạch Đằng","StopType":"Trụ dừng","Zone":"Quận 1","Ward":null,"AddressNo":"21","Street":"Tôn Đức Thắng","SupportDisability":"","Status":"Đang khai thác","Lng":106.706359,"Lat":10.773299,"Search":"BBD 21 TDT","Routes":"01, 03, 120, 19, 45, 53, 56, 61-6, 88, D1, DL01"},{"StopId":76,"Code":"Q1 020","Name":"Cục Hải Quan Thành Phố","StopType":"Nhà chờ","Zone":"Quận 1","Ward":"Phường Bến Nghé","AddressNo":"2-4","Street":"Hàm Nghi","SupportDisability":"","Status":"Đang khai thác","Lng":106.705549,"Lat":10.770885,"Search":"CHQTP 2-4 HN","Routes":"01, 03, 123, 124, 19, 45, 56, 61-6, 88, D1"},{"StopId":3691,"Code":"Q1 193","Name":"Chợ Cũ","StopType":"Nhà chờ","Zone":"Quận 1","Ward":"Phường Bến Nghé","AddressNo":"84","Street":"Hàm Nghi","SupportDisability":"","Status":"Đang khai thác","Lng":106.703108,"Lat":10.771006,"Search":"CC 84 HN","Routes":"01, 03, 19, 45, 56, 86, 88"},{"StopId":2028,"Code":"Q1 194","Name":"Trường Cao Thắng","StopType":"Nhà chờ","Zone":"Quận 1","Ward":"Phường Bến Nghé","AddressNo":"Trường Cao Thắng","Street":"Hàm Nghi","SupportDisability":"","Status":"Đang khai thác","Lng":106.701853,"Lat":10.771043,"Search":"TCT TCT HN","Routes":"01, 03, 102, 19, 20, 34, 38, 39, 45, 56, 75, 86, 88"},{"StopId":7270,"Code":"Q1 184","Name":"Trạm Trung chuyển trên đường Hàm Nghi","StopType":"Nhà chờ","Zone":"Quận 1","Ward":"Phường Bến Thành","AddressNo":"Hàm Nghi 6","Street":"Hàm Nghi","SupportDisability":"Có","Status":"Đang khai thác","Lng":106.699938,"Lat":10.771149,"Search":"TTctdHN HN6 HN","Routes":"03, 53, 61-6, D1"},{"StopId":7269,"Code":"Q1 183","Name":"Trạm Trung chuyển trên đường Hàm Nghi","StopType":"Nhà chờ","Zone":"Quận 1","Ward":"Phường Bến Thành","AddressNo":"Hàm Nghi 8","Street":"Hàm Nghi","SupportDisability":"Có","Status":"Đang khai thác","Lng":106.699492,"Lat":10.77117,"Search":"TTctdHN HN8 HN","Routes":"03, 19, 56, 88"},{"StopId":7273,"Code":"Q1 187","Name":"Khách sạn New World","StopType":"Ô sơn","Zone":"Quận 1","Ward":"Phường Bến Thành","AddressNo":"Đối diện cây xanh số 105","Street":"Lê Lai","SupportDisability":"Có","Status":"Đang khai thác","Lng":106.695946,"Lat":10.770964,"Search":"KsNW Ddcxs105 LL","Routes":"03, 04, 102, 109, 18, 19, 20, 34, 36, 39, 52, 75, 86, 88, 93"},{"StopId":7274,"Code":"Q1 188","Name":"Nguyễn Thị Nghĩa","StopType":"Trụ dừng","Zone":"Quận 1","Ward":"Phường Bến Thành","AddressNo":"94-96","Street":"Lê Lai","SupportDisability":"Có","Status":"Đang khai thác","Lng":106.693495,"Lat":10.769952,"Search":"NTN 94-96 LL","Routes":"03, 04, 102, 109, 140, 18, 19, 20, 34, 36, 39, 52, 53, 69, 72, 75, 86, 88, 93"},{"StopId":7275,"Code":"Q1 189","Name":"Tôn Thất Tùng","StopType":"Trụ dừng","Zone":"Quận 1","Ward":"Phường Bến Thành","AddressNo":"202-204","Street":"Lê Lai","SupportDisability":"Có","Status":"Đang khai thác","Lng":106.690469,"Lat":10.768761,"Search":"TTT 202-204 LL","Routes":"03, 04, 102, 109, 140, 18, 19, 20, 34, 36, 39, 52, 53, 69, 72, 75, 86, 88, 93"},{"StopId":35,"Code":"BX 01","Name":"Bến xe buýt Sài Gòn","StopType":"Bến xe","Zone":"Quận 1","Ward":"Phường Phạm Ngũ Lão","AddressNo":"BẾN XE BUÝT SÀI GÒN","Street":"Lê Lai","SupportDisability":"Có","Status":"Đang khai thác","Lng":106.689362,"Lat":10.767676,"Search":"BxbSG BXBSG LL","Routes":"03, 04, 102, 109, 120, 13, 140, 18, 19, 20, 27, 28, 34, 36, 39, 52, 61-6, 65, 69, 70-3, 72, 75, 86, 88, 93, D1"}],"RouteId":"3","RouteVarId":"6"}
{"Stops":[{"StopId":8,"Code":"BX14","Name":"Bến xe Chợ Lớn","StopType":"Bến xe","Zone":"Quận 5","Ward":null,"AddressNo":"GA HKXB CHO LON","Street":"Lê Quang Sung","SupportDisability":"","Status":"Đang khai thác","Lng":106.6525650024414,"Lat":10.751253128051758,"Search":"BxCL GHCL LQS","Routes":"01, 05, 06, 07, 09, 150, 23, 47, 56, 62-1, 62-10, 62-7, 62-8, 81, 94"},{"StopId":1,"Code":"Q6 095","Name":"Chu Văn An","StopType":"Trụ dừng","Zone":"Quận 6","Ward":null,"AddressNo":"27","Street":"Tháp Mười","SupportDisability":"","Status":"Đang khai thác","Lng":106.652554,"Lat":10.750232,"Search":"CVA 27 TM","Routes":"01, 07, 10, 150, 25"},{"StopId":2,"Code":"Q5 016","Name":"Chợ Kim Biên","StopType":"Trụ dừng","Zone":"Quận 5","Ward":null,"AddressNo":"11-12","Street":"Hải Thượng Lãn Ông","SupportDisability":"","Status":"Đang khai thác","Lng":106.655075,"Lat":10.750732,"Search":"CKB 11-12 HTLO","Routes":"01, 05, 07, 25, 39, 47, 56"},{"StopId":3,"Code":"Q5 011","Name":"Bưu điện Quận 5","StopType":"Ô sơn","Zone":"Quận 5","Ward":null,"AddressNo":"14-16","Street":"Châu Văn Liêm","SupportDisability":"","Status":"Đang khai thác","Lng":106.659203,"Lat":10.751368,"Search":"BdQ5 14-16 CVL","Routes":"01, 05, 07, 08, 45, 56, 62"},{"StopId":5,"Code":"Q5 012","Name":"Rạp Đại Quang","StopType":"Nhà chờ","Zone":"Quận 5","Ward":null,"AddressNo":"68","Street":"Châu Văn Liêm","SupportDisability":"","Status":"Đang khai thác","Lng":106.658937,"Lat":10.752566,"Search":"RDQ 68 CVL","Routes":"01, 05, 07, 08, 10, 45, 56, 62"},{"StopId":437,"Code":"Q5 025","Name":"Bệnh viện Chợ Rẫy","StopType":"Trụ dừng","Zone":"Quận 5","Ward":null,"AddressNo":"357-359","Street":"Hồng Bàng","SupportDisability":"","Status":"Đang khai thác","Lng":106.659232,"Lat":10.754553,"Search":"BvCR 357-359 HB","Routes":"06, 07, 08, 139, 150, 56, 62, 68"},{"StopId":439,"Code":"Q5 026","Name":"Đại học Y Dược","StopType":"Nhà chờ","Zone":"Quận 5","Ward":null,"AddressNo":"217","Street":"Hồng Bàng","SupportDisability":"","Status":"Đang khai thác","Lng":106.663191,"Lat":10.75536,"Search":"DhYD 217 HB","Routes":"06, 07, 10, 139, 150, 56, 68"},{"StopId":440,"Code":"Q5 027","Name":"Bệnh viện Đại học Y Dược","StopType":"Nhà chờ","Zone":"Quận 5","Ward":null,"AddressNo":"215","Street":"Hồng Bàng","SupportDisability":"","Status":"Đang khai thác","Lng":106.664683,"Lat":10.755671,"Search":"BvDhYD 215 HB","Routes":"06, 07, 139, 150, 56, 68, 70-3"},{"StopId":432,"Code":"Q5 068","Name":"Công viên Văn Lang","StopType":"Trụ dừng","Zone":"Quận 5","Ward":null,"AddressNo":"132A","Street":"Nguyễn Tri Phương","SupportDisability":"","Status":"Đang khai thác","Lng":106.669613,"Lat":10.757151,"Search":"CvVL 132A NTP","Routes":"06, 07, 139, 150, 56, 59, 68"},{"StopId":441,"Code":"Q5 069","Name":"Trường Trần Khai Nguyên","StopType":"Ô sơn","Zone":"Quận 5","Ward":null,"AddressNo":"138G-138F","Street":"Nguyễn Tri Phương","SupportDisability":"","Status":"Đang khai thác","Lng":106.66928,"Lat":10.758706,"Search":"TTKN 138G-138F NTP","Routes":"07, 150, 59"},{"StopId":442,"Code":"Q10 071","Name":"Đại học Kinh tế","StopType":"Trụ dừng","Zone":"Quận 10","Ward":null,"AddressNo":"234-236","Street":"Nguyễn Tri Phương","SupportDisability":"","Status":"Đang khai thác","Lng":106.668564,"Lat":10.761386,"Search":"DhKt 234-236 NTP","Routes":"07, 10, 59"},{"StopId":444,"Code":"Q10 072","Name":"Trường Hoàng Văn Thụ","StopType":"Nhà chờ","Zone":"Quận 10","Ward":null,"AddressNo":"336","Street":"Nguyễn Tri Phương","SupportDisability":"","Status":"Đang khai thác","Lng":106.668213,"Lat":10.763073,"Search":"THVT 336 NTP","Routes":"07, 59"},{"StopId":443,"Code":"Q10 073","Name":"Chợ Nhật Tảo","StopType":"Trụ dừng","Zone":"Quận 10","Ward":null,"AddressNo":"426","Street":"Nguyễn Tri Phương","SupportDisability":"","Status":"Đang khai thác","Lng":106.667702,"Lat":10.765397,"Search":"CNT 426 NTP","Routes":"07, 59"},{"StopId":446,"Code":"Q10 074","Name":"Học viện Quân y","StopType":"Trụ dừng","Zone":"Quận 10","Ward":null,"AddressNo":"476","Street":"Nguyễn Tri Phương","SupportDisability":"","Status":"Đang khai thác","Lng":106.667313,"Lat":10.767052,"Search":"HvQy 476 NTP","Routes":"07, 59"},{"StopId":158,"Code":"Q10 011","Name":"Bệnh viện Nhi Đồng 1","StopType":"Nhà chờ","Zone":"Quận 10","Ward":null,"AddressNo":"Đối diện 350","Street":"Đường 3/2","SupportDisability":"","Status":"Đang khai thác","Lng":106.670609,"Lat":10.769518,"Search":"BvND1 Dd350 D3/2","Routes":"07"},{"StopId":160,"Code":"Q10 012","Name":"Nhà thờ Vinh Sơn","StopType":"Trụ dừng","Zone":"Quận 10","Ward":null,"AddressNo":"273-275","Street":"Đường 3/2","SupportDisability":"","Status":"Đang khai thác","Lng":106.672166,"Lat":10.770269,"Search":"NtVS 273-275 D3/2","Routes":"07"},{"StopId":159,"Code":"Q10 013","Name":"Nhà hát Hòa Bình","StopType":"Trụ dừng","Zone":"Quận 10","Ward":null,"AddressNo":"183A-183B","Street":"Đường 3/2","SupportDisability":"","Status":"Đang khai thác","Lng":106.674805,"Lat":10.771855,"Search":"NhHB 183A-183B D3/2","Routes":"07"},{"StopId":162,"Code":"Q10 014","Name":"Học viện Hành chính Quốc gia","StopType":"Trụ dừng","Zone":"Quận 10","Ward":null,"AddressNo":"113","Street":"Đường 3/2","SupportDisability":"","Status":"Đang khai thác","Lng":106.677015,"Lat":10.77323,"Search":"HvHcQg 113 D3/2","Routes":"07"},{"StopId":445,"Code":"Q10 015","Name":"Bệnh viện Bình Dân","StopType":"Trụ dừng","Zone":"Quận 10","Ward":null,"AddressNo":"51","Street":"Đường 3/2","SupportDisability":"","Status":"Đang khai thác","Lng":106.67885,"Lat":10.774421,"Search":"BvBD 51 D3/2","Routes":"07"},{"StopId":448,"Code":"Q10 016","Name":"Siêu thị Maximark","StopType":"Nhà chờ","Zone":"Quận 10","Ward":null,"AddressNo":"3","Street":"Đường 3/2","SupportDisability":"","Status":"Đang khai thác","Lng":106.68099,"Lat":10.776977,"Search":"StM 3 D3/2","Routes":"07"},{"StopId":447,"Code":"Q3 033","Name":"Nhà thờ Dòng chúa Cứu thế","StopType":"Trụ dừng","Zone":"Quận 3","Ward":null,"AddressNo":"25","Street":"Kỳ Đồng","SupportDisability":"","Status":"Đang khai thác","Lng":106.681305,"Lat":10.780805,"Search":"NtDcCt 25 KD","Routes":"07"},{"StopId":451,"Code":"Q3 034","Name":"Trần Quốc Thảo","StopType":"Trụ dừng","Zone":"Quận 3","Ward":null,"AddressNo":"5","Street":"Kỳ Đồng","SupportDisability":"","Status":"Đang khai thác","Lng":106.683022,"Lat":10.784504,"Search":"TQT 5 KD","Routes":"07"},{"StopId":449,"Code":"Q3 042","Name":"Chợ Nguyễn Văn Trỗi","StopType":"Trụ dừng","Zone":"Quận 3","Ward":"Phường 14","AddressNo":"332 - 334","Street":"Lê Văn Sỹ","SupportDisability":"","Status":"Đang khai thác","Lng":106.679535,"Lat":10.787041,"Search":"CNVT 332-334 LVS","Routes":"07, 28"},{"StopId":453,"Code":"Q3 093","Name":"Trần Quang Diệu","StopType":"Trụ dừng","Zone":"Quận 3","Ward":"Phường 14","AddressNo":"24 - 26","Street":"Trần Quang Diệu","SupportDisability":"","Status":"Đang khai thác","Lng":106.678319,"Lat":10.788375,"Search":"TQD 24-26 TQD","Routes":"07"},{"StopId":450,"Code":"QPN 030","Name":"Bệnh viện An Sinh","StopType":"Trụ dừng","Zone":"Quận Phú Nhuận","Ward":null,"AddressNo":"8","Street":"Trần Huy Liệu","SupportDisability":"","Status":"Đang khai thác","Lng":106.678123,"Lat":10.791023,"Search":"BvAS 8 THL","Routes":"07"},{"StopId":452,"Code":"QPN 031","Name":"Ngã Tư Nguyễn Văn Trỗi","StopType":"Trụ dừng","Zone":"Quận Phú Nhuận","Ward":null,"AddressNo":"60","Street":"Trần Huy Liệu","SupportDisability":"","Status":"Đang khai thác","Lng":106.677992,"Lat":10.793028,"Search":"NTNVT 60 THL","Routes":"07"},{"StopId":252,"Code":"QPN 049","Name":"Trung tâm văn hóa Quận Phú Nhuận","StopType":"Trụ dừng","Zone":"Quận Phú Nhuận","Ward":null,"AddressNo":"68","Street":"Nguyễn Văn Trỗi","SupportDisability":"","Status":"Đang khai thác","Lng":106.676093,"Lat":10.795421,"Search":"TtvhQPN 68 NVT","Routes":"04, 07, 109, 152"},{"StopId":253,"Code":"QPN 050","Name":"Cổng xe lửa","StopType":"Trụ dừng","Zone":"Quận Phú Nhuận","Ward":null,"AddressNo":"104","Street":"Nguyễn Văn Trỗi","SupportDisability":"","Status":"Đang khai thác","Lng":106.673797,"Lat":10.79677,"Search":"Cxl 104 NVT","Routes":"04, 07, 109, 152"},{"StopId":254,"Code":"QPN 051","Name":"Bệnh viện Quận Phú Nhuận","StopType":"Trụ dừng","Zone":"Quận Phú Nhuận","Ward":null,"AddressNo":"142","Street":"Nguyễn Văn Trỗi","SupportDisability":"","Status":"Đang khai thác","Lng":106.670793,"Lat":10.798525,"Search":"BvQPN 142 NVT","Routes":"04, 07, 109, 152"},{"StopId":255,"Code":"QPN 052 ","Name":"Cây xăng Quân khu 7","StopType":"Nhà chờ","Zone":"Quận Phú Nhuận","Ward":null,"AddressNo":"180","Street":"Nguyễn Văn Trỗi","SupportDisability":"","Status":"Đang khai thác","Lng":106.66891,"Lat":10.799642,"Search":"CxQk7 180 NVT","Routes":"04, 07, 109, 152"},{"StopId":256,"Code":"QTB 099","Name":"Cổng trước SVĐ Quân Khu 7","StopType":"Nhà chờ","Zone":"Quận Tân Bình","Ward":null,"AddressNo":"A2 (Sân vận động Quân khu 7)","Street":"Phan Đình Giót","SupportDisability":"","Status":"Đang khai thác","Lng":106.66678,"Lat":10.800848,"Search":"CtSQK7 A(vdQk7) PDG","Routes":"04, 07, 08, 104, 109, 152, 64"},{"StopId":455,"Code":"QTB 101","Name":"Rạp Tân Sơn Nhất","StopType":"Nhà chờ","Zone":"Quận Tân Bình","Ward":null,"AddressNo":"2B (Hông sân vận động Quân Khu 7)","Street":"Phổ Quang","SupportDisability":"","Status":"Đang khai thác","Lng":106.665924,"Lat":10.80244,"Search":"RTSN 2B(svdQK7) PQ","Routes":"07, 148, 50, 59"},{"StopId":457,"Code":"QTB 102","Name":"Bãi xe buýt Phổ Quang","StopType":"Trụ dừng","Zone":"Quận Tân Bình","Ward":null,"AddressNo":"66 (Công ty Xe khách Sài Gòn)","Street":"Phổ Quang","SupportDisability":"","Status":"Đang khai thác","Lng":106.6667,"Lat":10.805417,"Search":"BxbPQ 66(tXkSG PQ","Routes":"07, 148, 50, 59"},{"StopId":454,"Code":"QTB 103","Name":"Cây xăng Quân đội","StopType":"Trụ dừng","Zone":"Quận Tân Bình","Ward":null,"AddressNo":"96-100","Street":"Phổ Quang","SupportDisability":"","Status":"Đang khai thác","Lng":106.668495,"Lat":10.807221,"Search":"CxQd 96-100 PQ","Routes":"07, 148, 50, 59"},{"StopId":456,"Code":"QPN 033","Name":"Trường Đại học Kỹ thuật Công nghệ","StopType":"Trụ dừng","Zone":"Quận Phú Nhuận","Ward":null,"AddressNo":"140","Street":"Phổ Quang","SupportDisability":"","Status":"Đang khai thác","Lng":106.672236,"Lat":10.808204,"Search":"TDhKtCn 140 PQ","Routes":"07, 148, 50, 59"},{"StopId":459,"Code":"QPN 036","Name":"Cuối công viên Gia Định","StopType":"Nhà chờ","Zone":"Quận Phú Nhuận","Ward":null,"AddressNo":"7","Street":"Hoàng Minh Giám","SupportDisability":"","Status":"Đang khai thác","Lng":106.674929,"Lat":10.809727,"Search":"CcvGD 7 HMG","Routes":"07, 148, 50, 59"},{"StopId":458,"Code":"QPN 037","Name":"Ngã ba Đặng Văn Sâm","StopType":"Nhà chờ","Zone":"Quận Phú Nhuận","Ward":null,"AddressNo":"Ngã ba Đặng Văn Sâm","Street":"Hoàng Minh Giám","SupportDisability":"","Status":"Đang khai thác","Lng":106.676399,"Lat":10.811382,"Search":"NbDVS NbDVS HMG","Routes":"07, 148, 50, 59"},{"StopId":461,"Code":"QPN 038","Name":"Đầu công viên Gia Định","StopType":"Nhà chờ","Zone":"Quận Phú Nhuận","Ward":null,"AddressNo":"Đối diện Rạp xiếc","Street":"Hoàng Minh Giám","SupportDisability":"","Status":"Đang khai thác","Lng":106.677949,"Lat":10.813231,"Search":"DcvGD DdRx HMG","Routes":"07, 148, 50, 59"},{"StopId":56,"Code":"QGV 040","Name":"Cầu vượt Nguyễn Thái Sơn - Nguyễn Kiệm","StopType":"Trụ dừng","Zone":"Quận Gò Vấp","Ward":null,"AddressNo":"86 - 86C","Street":"Nguyễn Thái Sơn","SupportDisability":"","Status":"Đang khai thác","Lng":106.680443,"Lat":10.816282,"Search":"CvNTS-NK 86-86C NTS","Routes":"03, 07, 103, 148, 55, 59"},{"StopId":57,"Code":"QGV 042","Name":"Ngã ba Phạm Ngũ Lão","StopType":"Trụ dừng","Zone":"Quận Gò Vấp","Ward":null,"AddressNo":"182","Street":"Nguyễn Thái Sơn","SupportDisability":"","Status":"Đang khai thác","Lng":106.683147,"Lat":10.819712,"Search":"NbPNL 182 NTS","Routes":"03, 07, 103, 148, 55, 59"},{"StopId":460,"Code":"QGV 043","Name":"Ngã ba Phạm Ngũ Lão","StopType":"Trụ dừng","Zone":"Quận Gò Vấp","Ward":null,"AddressNo":"246 ","Street":"Nguyễn Thái Sơn","SupportDisability":"","Status":"Đang khai thác","Lng":106.68407,"Lat":10.820834,"Search":"NbPNL 246 NTS","Routes":"07, 148"},{"StopId":463,"Code":"QGV 044","Name":"Trường Đại học Công nghiệp","StopType":"Trụ dừng","Zone":"Quận Gò Vấp","Ward":null,"AddressNo":"320","Street":"Nguyễn Thái Sơn","SupportDisability":"","Status":"Đang khai thác","Lng":106.685636,"Lat":10.822789,"Search":"TDhCn 320 NTS","Routes":"07, 148"},{"StopId":462,"Code":"QGV 045","Name":"UBND Phường 5","StopType":"Trụ dừng","Zone":"Quận Gò Vấp","Ward":null,"AddressNo":"396","Street":"Nguyễn Thái Sơn","SupportDisability":"","Status":"Đang khai thác","Lng":106.687975,"Lat":10.825134,"Search":"UP5 396 NTS","Routes":"07, 146, 148"},{"StopId":468,"Code":"BX43","Name":"BÃI HẬU CẦN SỐ 1","StopType":"Bến xe","Zone":"Quận Gò Vấp","Ward":null,"AddressNo":"BÃI HẬU CẦN SỐ 1","Street":"Phan Văn Trị","SupportDisability":"","Status":"Đang khai thác","Lng":106.69189453125,"Lat":10.82361125946045,"Search":"BHCS1 BHCS1 PVT","Routes":"07, 148"}],"RouteId":"7","RouteVarId":"13"}
{"Stops":[{"StopId":35,"Code":"BX 01","Name":"Bến xe buýt Sài Gòn","StopType":"Bến xe","Zone":"Quận 1","Ward":"Phường Phạm Ngũ Lão","AddressNo":"BẾN XE BUÝT SÀI GÒN","Street":"Lê Lai","SupportDisability":"Có","Status":"Đang khai thác","Lng":106.689362,"Lat":10.767676,"Search":"BxbSG BXBSG LL","Routes":"03, 04, 102, 109, 120, 13, 140, 18, 19, 20, 27, 28, 34, 36, 39, 52, 61-6, 65, 69, 70-3, 72, 75, 86, 88, 93, D1"},{"StopId":7276,"Code":"Q1 190","Name":"Tôn Thất Tùng","StopType":"Trụ dừng","Zone":"Quận 1","Ward":"Phường Phạm Ngũ Lão","AddressNo":"277-279-275Y","Street":"Phạm Ngũ Lão","SupportDisability":"Có","Status":"Đang khai thác","Lng":106.690941,"Lat":10.76767,"Search":"TTT 277-279-275Y PNL","Routes":"03, 04, 102, 109, 140, 18, 19, 20, 28, 34, 36, 39, 46, 52, 65, 69, 72, 75, 86, 88, 93"},{"StopId":7277,"Code":"Q1 191","Name":"Nguyễn Thị Nghĩa","StopType":"Trụ dừng","Zone":"Quận 1","Ward":"Phường Phạm Ngũ Lão","AddressNo":"187","Street":"Phạm Ngũ Lão","SupportDisability":"Có","Status":"Đang khai thác","Lng":106.693699,"Lat":10.768788,"Search":"NTN 187 PNL","Routes":"03, 04, 102, 109, 140, 18, 19, 20, 28, 34, 36, 39, 46, 52, 65, 69, 72, 93, DL01"},{"StopId":7278,"Code":"Q1 192","Name":"Trường Emst Thalmann","StopType":"Nhà chờ","Zone":"Quận 1","Ward":"Phường Phạm Ngũ Lão","AddressNo":"Trường Emst Thalmann","Street":"Phạm Ngũ Lão","SupportDisability":"Có","Status":"Đang khai thác","Lng":106.695587,"Lat":10.769504,"Search":"TET TET PNL","Routes":"03, 04, 102, 109, 18, 19, 20, 34, 36, 39, 52, 65, 69, 93"},{"StopId":7266,"Code":"Q1 180","Name":"Trạm Trung chuyển trên đường Hàm Nghi","StopType":"Nhà chờ","Zone":"Quận 1","Ward":"Phường Nguyễn Thái Bình","AddressNo":"Hàm Nghi 7","Street":"Hàm Nghi","SupportDisability":"Có","Status":"Đang khai thác","Lng":106.700807,"Lat":10.770896,"Search":"TTctdHN HN7 HN","Routes":"01, 03, 04, 19, 56, 88"},{"StopId":7693,"Code":"Q1 1950","Name":"Nam Kỳ Khởi Nghĩa","StopType":"Nhà chờ","Zone":"Quận 1","Ward":"Phường Nguyễn Thái Bình","AddressNo":"93-95","Street":"Hàm Nghi","SupportDisability":"Có","Status":"Đang khai thác","Lng":106.701354,"Lat":10.770875,"Search":"NKKN 93-95 HN","Routes":"01, 03, 04, 19, 88"},{"StopId":1256,"Code":"Q1 195","Name":"Chợ Cũ","StopType":"Nhà chờ","Zone":"Quận 1","Ward":"Phường Nguyễn Thái Bình","AddressNo":"89A","Street":"Hàm Nghi","SupportDisability":"","Status":"Đang khai thác","Lng":106.701998,"Lat":10.770811,"Search":"CC 89A HN","Routes":"01, 03, 04, 152, 18, 19, 31, 36, 45, 52, 56, 61-6, 75, 86, 88, 93"},{"StopId":4271,"Code":"Q1 078","Name":"Đền Thờ Ấn Giáo, Pasteur","StopType":"Nhà chờ","Zone":"Quận 1","Ward":null,"AddressNo":"Đền Thờ Ấn Giáo","Street":"Pasteur","SupportDisability":"","Status":"Đang khai thác","Lng":106.70139,"Lat":10.773595,"Search":"DTAGP DTAG P","Routes":"04, 109, 152, 18, 31, 36, 52, 93"},{"StopId":2724,"Code":"Q1 079","Name":"Lê Thánh Tôn","StopType":"Trụ dừng","Zone":"Quận 1","Ward":null,"AddressNo":"144","Street":"Pasteur","SupportDisability":"","Status":"Đang khai thác","Lng":106.700768,"Lat":10.775088,"Search":"LTT 144 P","Routes":"04, 109, 152, 18, 31, 36, 52, 93"},{"StopId":4272,"Code":"Q1 080","Name":"Lý Tự Trọng","StopType":"Trụ dừng","Zone":"Quận 1","Ward":null,"AddressNo":"158","Street":"Pasteur","SupportDisability":"","Status":"Đang khai thác","Lng":106.699657,"Lat":10.777089,"Search":"LTT 158 P","Routes":"04, 109, 152, 18, 31, 36, 52, 93"},{"StopId":4273,"Code":"Q1 081","Name":"Lê Duẫn","StopType":"Trụ dừng","Zone":"Quận 1","Ward":null,"AddressNo":"178","Street":"Pasteur","SupportDisability":"","Status":"Đang khai thác","Lng":106.698333,"Lat":10.778307999999999,"Search":"LD 178 P","Routes":"04, 109, 120, 152, 18, 31, 36, 52, 93"},{"StopId":4274,"Code":"Q1 082","Name":"Nguyễn Thị Minh Khai","StopType":"Nhà chờ","Zone":"Quận 1","Ward":null,"AddressNo":"184","Street":"Pasteur","SupportDisability":"","Status":"Đang khai thác","Lng":106.696659,"Lat":10.779782,"Search":"NTMK 184 P","Routes":"04, 109, 152, 31, 93"},{"StopId":243,"Code":"Q3 082","Name":"Đại học Kiến Trúc","StopType":"Nhà chờ","Zone":"Quận 3","Ward":"Phường 06","AddressNo":"194 D","Street":"Pasteur","SupportDisability":"Có","Status":"Đang khai thác","Lng":106.694579,"Lat":10.781804,"Search":"DhKT 194D P","Routes":"04, 109, 152, 93"},{"StopId":244,"Code":"Q3 083","Name":"Điện Biên Phủ","StopType":"Nhà chờ","Zone":"Quận 3","Ward":"Phường 06","AddressNo":"214","Street":"Pasteur","SupportDisability":"Có","Status":"Đang khai thác","Lng":106.692749,"Lat":10.783419,"Search":"DBP 214 P","Routes":"04, 109, 152, 93"},{"StopId":245,"Code":"Q3 084","Name":"Võ Thị Sáu","StopType":"Nhà chờ","Zone":"Quận 3","Ward":null,"AddressNo":"232","Street":"Pasteur","SupportDisability":"Có","Status":"Đang khai thác","Lng":106.691145,"Lat":10.784924,"Search":"VTS 232 P","Routes":"04, 109, 152"},{"StopId":246,"Code":"Q3 101","Name":"Nhà thiếu nhi thành phố","StopType":"Nhà chờ","Zone":"Quận 3","Ward":null,"AddressNo":"Đối diện 153 A-B (ngã 4 NKKN)","Street":"Võ Thị Sáu","SupportDisability":"","Status":"Đang khai thác","Lng":106.689613,"Lat":10.785583,"Search":"Ntntp Dd153A(4N VTS","Routes":"04, 109, 152, 30, 91"},{"StopId":247,"Code":"Q3 048","Name":"Viện Pasteur","StopType":"Nhà chờ","Zone":"Quận 3","Ward":null,"AddressNo":"252 (Đối diện 175)","Street":"Nam Kỳ Khởi Nghĩa","SupportDisability":"","Status":"Đang khai thác","Lng":106.688683,"Lat":10.785577,"Search":"VP 252(d175) NKKN","Routes":"04, 109, 152"},{"StopId":248,"Code":"Q3 049","Name":"Trần Quốc Toản","StopType":"Trụ dừng","Zone":"Quận 3","Ward":"Phường 08","AddressNo":"260A","Street":"Nam Kỳ Khởi Nghĩa","SupportDisability":"","Status":"Đang khai thác","Lng":106.687133,"Lat":10.787047,"Search":"TQT 260A NKKN","Routes":"04, 109, 152"},{"StopId":250,"Code":"Q3 050","Name":"Lý Chính Thắng","StopType":"Trụ dừng","Zone":"Quận 3","Ward":null,"AddressNo":"288 B7","Street":"Nam Kỳ Khởi Nghĩa","SupportDisability":"","Status":"Đang khai thác","Lng":106.684746,"Lat":10.789245,"Search":"LCT 288B NKKN","Routes":"04, 109, 152"},{"StopId":249,"Code":"Q3 051","Name":"Chùa Vĩnh Nghiêm","StopType":"Trụ dừng","Zone":"Quận 3","Ward":null,"AddressNo":"382E","Street":"Nam Kỳ Khởi Nghĩa","SupportDisability":"","Status":"Đang khai thác","Lng":106.683125,"Lat":10.790694,"Search":"CVN 382E NKKN","Routes":"04, 109, 152"},{"StopId":251,"Code":"QPN 048","Name":"Ngã tư Trần Huy Liệu","StopType":"Trụ dừng","Zone":"Quận Phú Nhuận","Ward":null,"AddressNo":"40","Street":"Nguyễn Văn Trỗi","SupportDisability":"","Status":"Đang khai thác","Lng":106.679236,"Lat":10.793555,"Search":"NtTHL 40 NVT","Routes":"04, 109, 152"},{"StopId":252,"Code":"QPN 049","Name":"Trung tâm văn hóa Quận Phú Nhuận","StopType":"Trụ dừng","Zone":"Quận Phú Nhuận","Ward":null,"AddressNo":"68","Street":"Nguyễn Văn Trỗi","SupportDisability":"","Status":"Đang khai thác","Lng":106.676093,"Lat":10.795421,"Search":"TtvhQPN 68 NVT","Routes":"04, 07, 109, 152"},{"StopId":253,"Code":"QPN 050","Name":"Cổng xe lửa","StopType":"Trụ dừng","Zone":"Quận Phú Nhuận","Ward":null,"AddressNo":"104","Street":"Nguyễn Văn Trỗi","SupportDisability":"","Status":"Đang khai thác","Lng":106.673797,"Lat":10.79677,"Search":"Cxl 104 NVT","Routes":"04, 07, 109, 152"},{"StopId":254,"Code":"QPN 051","Name":"Bệnh viện Quận Phú Nhuận","StopType":"Trụ dừng","Zone":"Quận Phú Nhuận","Ward":null,"AddressNo":"142","Street":"Nguyễn Văn Trỗi","SupportDisability":"","Status":"Đang khai thác","Lng":106.670793,"Lat":10.798525,"Search":"BvQPN 142 NVT","Routes":"04, 07, 109, 152"},{"StopId":255,"Code":"QPN 052 ","Name":"Cây xăng Quân khu 7","StopType":"Nhà chờ","Zone":"Quận Phú Nhuận","Ward":null,"AddressNo":"180","Street":"Nguyễn Văn Trỗi","SupportDisability":"","Status":"Đang khai thác","Lng":106.66891,"Lat":10.799642,"Search":"CxQk7 180 NVT","Routes":"04, 07, 109, 152"},{"StopId":256,"Code":"QTB 099","Name":"Cổng trước SVĐ Quân Khu 7","StopType":"Nhà chờ","Zone":"Quận Tân Bình","Ward":null,"AddressNo":"A2 (Sân vận động Quân khu 7)","Street":"Phan Đình Giót","SupportDisability":"","Status":"Đang khai thác","Lng":106.66678,"Lat":10.800848,"Search":"CtSQK7 A(vdQk7) PDG","Routes":"04, 07, 08, 104, 109, 152, 64"},{"StopId":257,"Code":"QTB 108","Name":"Công viên Hoàng Văn Thụ","StopType":"Nhà chờ","Zone":"Quận Tân Bình","Ward":null,"AddressNo":"Công viên Hoàng Văn Thụ","Street":"Phan Thúc Duyện","SupportDisability":"","Status":"Đang khai thác","Lng":106.664221,"Lat":10.802403,"Search":"CvHVT CvHVT PTD","Routes":"04, 08, 104, 64"},{"StopId":258,"Code":"QTB 107","Name":"Vòng xoay Lăng Cha Cả","StopType":"Nhà chờ","Zone":"Quận Tân Bình","Ward":null,"AddressNo":"20","Street":"Trần Quốc Hoàn","SupportDisability":"","Status":"Đang khai thác","Lng":106.662312,"Lat":10.801365,"Search":"VxLCC 20 TQH","Routes":"04, 08, 103, 104, 109, 148, 152, 50, 59, 64"},{"StopId":259,"Code":"QTB 110","Name":"Siêu thị Maximark Cộng Hòa","StopType":"Ô sơn","Zone":"Quận Tân Bình","Ward":null,"AddressNo":"60","Street":"Cộng Hòa","SupportDisability":"","Status":"Đang khai thác","Lng":106.659168,"Lat":10.801038,"Search":"StMCH 60 CH","Routes":"04, 104, 145, 28, 70-3"},{"StopId":260,"Code":"QTB 111","Name":"Nhà hát Quân Đội","StopType":"Trụ dừng","Zone":"Quận Tân Bình","Ward":null,"AddressNo":"138 (Kế nhà hát Quân đội)","Street":"Cộng Hòa","SupportDisability":"","Status":"Đang khai thác","Lng":106.656754,"Lat":10.801238,"Search":"NhQD 138(nhQd CH","Routes":"04, 104, 145, 28"},{"StopId":261,"Code":"QTB 112","Name":"Ngân hàng Quân đội","StopType":"Nhà chờ","Zone":"Quận Tân Bình","Ward":null,"AddressNo":"Tiệc cưới Hương Sen","Street":"Cộng Hòa","SupportDisability":"","Status":"Đang khai thác","Lng":106.654817,"Lat":10.801412,"Search":"NhQd TcHS CH","Routes":"04, 104, 145, 28"},{"StopId":262,"Code":"QTB 113","Name":"Công ty Lô Hội","StopType":"Trụ dừng","Zone":"Quận Tân Bình","Ward":null,"AddressNo":"184","Street":"Cộng Hòa","SupportDisability":"","Status":"Đang khai thác","Lng":106.651127,"Lat":10.801728,"Search":"CtLH 184 CH","Routes":"04, 104, 145, 28, 70-3"},{"StopId":263,"Code":"QTB 114","Name":"Ngã tư Hoàng Hoa Thám","StopType":"Trụ dừng","Zone":"Quận Tân Bình","Ward":null,"AddressNo":"304","Street":"Cộng Hòa","SupportDisability":"","Status":"Đang khai thác","Lng":106.646953,"Lat":10.802102,"Search":"NtHHT 304 CH","Routes":"04, 104, 145, 28, 70-3"},{"StopId":264,"Code":"QTB 115","Name":"Ngã ba Bình Giã","StopType":"Trụ dừng","Zone":"Quận Tân Bình","Ward":null,"AddressNo":"394-396","Street":"Cộng Hòa","SupportDisability":"","Status":"Đang khai thác","Lng":106.644512,"Lat":10.802276,"Search":"NbBG 394-396 CH","Routes":"04, 104, 145, 28"},{"StopId":265,"Code":"QTB 116","Name":"ETown","StopType":"Trụ dừng","Zone":"Quận Tân Bình","Ward":null,"AddressNo":"496","Street":"Cộng Hòa","SupportDisability":"","Status":"Đang khai thác","Lng":106.640967,"Lat":10.802571,"Search":"E 496 CH","Routes":"04, 104, 145, 28, 70-3"},{"StopId":266,"Code":"QTB 117","Name":"Thượng Uyển","StopType":"Nhà chờ","Zone":"Quận Tân Bình","Ward":null,"AddressNo":"660 (kế 592)","Street":"Cộng Hòa","SupportDisability":"","Status":"Đang khai thác","Lng":106.636192,"Lat":10.806313,"Search":"TU 660(592) CH","Routes":"04, 104, 145, 28, 70-3"},{"StopId":268,"Code":"QTB 075","Name":"Mũi tàu Cộng Hòa","StopType":"Trụ dừng","Zone":"Quận Tân Bình","Ward":null,"AddressNo":"19B1","Street":"Trường Chinh","SupportDisability":"","Status":"Đang khai thác","Lng":106.634696,"Lat":10.808078,"Search":"MtCH 19B1 TC","Routes":"04, 104, 145, 16, 23, 27, 28, 62, 65"},{"StopId":267,"Code":"QTB 076","Name":"Ngã ba Chế Lan Viên","StopType":"Nhà chờ","Zone":"Quận Tân Bình","Ward":null,"AddressNo":"Đối diện đường Chế Lan Viên","Street":"Trường Chinh","SupportDisability":"","Status":"Đang khai thác","Lng":106.633349,"Lat":10.812204,"Search":"NbCLV DddCLV TC","Routes":"04, 104, 145, 16, 23, 27, 28, 62, 65, 70-3"},{"StopId":270,"Code":"QTB 078","Name":"UBND Phường 15","StopType":"Nhà chờ","Zone":"Quận Tân Bình","Ward":null,"AddressNo":"850","Street":"Trường Chinh","SupportDisability":"","Status":"Đang khai thác","Lng":106.631461,"Lat":10.818332,"Search":"UP15 850 TC","Routes":"04, 104, 145, 23, 27, 28, 62, 65, 70-3"},{"StopId":271,"Code":"QTB 079","Name":"Khu Công Nghiệp Tân Bình","StopType":"Nhà chờ","Zone":"Quận Tân Bình","Ward":null,"AddressNo":"932","Street":"Trường Chinh","SupportDisability":"","Status":"Đang khai thác","Lng":106.630254,"Lat":10.822452,"Search":"KCNTB 932 TC","Routes":"04, 104, 13, 145, 23, 27, 32, 41, 61-8, 62, 65, 70-3, 94"},{"StopId":272,"Code":"Q12 128","Name":"Cầu Tham Lương - Siêu thị Thiên Hòa","StopType":"Nhà chờ","Zone":"Quận 12","Ward":null,"AddressNo":"60A-B (1/17A)","Street":"Trường Chinh","SupportDisability":"","Status":"Đang khai thác","Lng":106.625828,"Lat":10.826957,"Search":"CTL-StTH 60A-B( TC","Routes":"04, 104, 145, 23, 27, 41, 61-8, 62, 65, 70-3"},{"StopId":273,"Code":"Q12 129","Name":"Chùa Vĩnh Phước","StopType":"Nhà chờ","Zone":"Quận 12","Ward":null,"AddressNo":"110 (189/4)","Street":"Trường Chinh","SupportDisability":"","Status":"Đang khai thác","Lng":106.624594,"Lat":10.828627,"Search":"CVP 110( TC","Routes":"04, 104, 13, 145, 27, 41, 65, 70-3, 94"},{"StopId":275,"Code":"Q12 132","Name":"Chùa Lạc Quang","StopType":"Nhà chờ","Zone":"Quận 12","Ward":null,"AddressNo":"408","Street":"Trường Chinh","SupportDisability":"","Status":"Đang khai thác","Lng":106.620614,"Lat":10.834781,"Search":"CLQ 408 TC","Routes":"04, 104, 145, 27, 41, 65, 70-3"},{"StopId":277,"Code":"Q12 131","Name":"Bitis","StopType":"Nhà chờ","Zone":"Quận 12","Ward":null,"AddressNo":"590 (640)","Street":"Trường Chinh","SupportDisability":"","Status":"Đang khai thác","Lng":106.618398,"Lat":10.838222,"Search":"B 590( TC","Routes":"04, 104, 145, 27, 41, 65, 70-3"},{"StopId":1115,"Code":"Q12 122","Name":"Bến xe An Sương","StopType":"Trụ dừng","Zone":"Quận 12","Ward":null,"AddressNo":"F42","Street":"Quốc lộ 22","SupportDisability":"","Status":"Đang khai thác","Lng":106.613517,"Lat":10.845803,"Search":"BxAS F Ql22","Routes":"04, 104, 122, 13, 145, 24, 27, 62-5, 65, 70-3, 71, 85"},{"StopId":1239,"Code":"HHM 058","Name":"Bến xe An Sương","StopType":"Trụ dừng","Zone":"Huyện Hóc Môn","Ward":"Xã Bà Điểm","AddressNo":"1B","Street":"Quốc lộ 22","SupportDisability":"","Status":"Đang khai thác","Lng":106.613522,"Lat":10.845187,"Search":"BxAS 1B Ql22","Routes":"04, 122, 13, 145, 24, 62-5, 65, 70-3, 71, 74, 85, 94"},{"StopId":166,"Code":"BX41","Name":"Bến xe An Sương","StopType":"Bến xe","Zone":"Quận 12","Ward":null,"AddressNo":"Bến xe An Sương","Street":"Quốc lộ 22","SupportDisability":"","Status":"Đang khai thác","Lng":106.61337280273438,"Lat":10.843737602233887,"Search":"BxAS BxAS Ql22","Routes":"04, 104, 122, 151, 27, 33, 41, 61-3, 62-5, 65, 71, 74, 85"}],"RouteId":"4","RouteVarId":"7"}
{"Stops":[{"StopId":8,"Code":"BX14","Name":"Bến xe Chợ Lớn","StopType":"Bến xe","Zone":"Quận 5","Ward":null,"AddressNo":"GA HKXB CHO LON","Street":"Lê Quang Sung","SupportDisability":"","Status":"Đang khai thác","Lng":106.6525650024414,"Lat":10.751253128051758,"Search":"BxCL GHCL LQS","Routes":"01, 05, 06, 07, 09, 150, 23, 47, 56, 62-1, 62-10, 62-7, 62-8, 81, 94"},{"StopId":1,"Code":"Q6 095","Name":"Chu Văn An","StopType":"Trụ dừng","Zone":"Quận 6","Ward":null,"AddressNo":"27","Street":"Tháp Mười","SupportDisability":"","Status":"Đang khai thác","Lng":106.652554,"Lat":10.750232,"Search":"CVA 27 TM","Routes":"01, 07, 10, 150, 25"},{"StopId":2,"Code":"Q5 016","Name":"Chợ Kim Biên","StopType":"Trụ dừng","Zone":"Quận 5","Ward":null,"AddressNo":"11-12","Street":"Hải Thượng Lãn Ông","SupportDisability":"","Status":"Đang khai thác","Lng":106.655075,"Lat":10.750732,"Search":"CKB 11-12 HTLO","Routes":"01, 05, 07, 25, 39, 47, 56"},{"StopId":3,"Code":"Q5 011","Name":"Bưu điện Quận 5","StopType":"Ô sơn","Zone":"Quận 5","Ward":null,"AddressNo":"14-16","Street":"Châu Văn Liêm","SupportDisability":"","Status":"Đang khai thác","Lng":106.659203,"Lat":10.751368,"Search":"BdQ5 14-16 CVL","Routes":"01, 05, 07, 08, 45, 56, 62"},{"StopId":5,"Code":"Q5 012","Name":"Rạp Đại Quang","StopType":"Nhà chờ","Zone":"Quận 5","Ward":null,"AddressNo":"68","Street":"Châu Văn Liêm","SupportDisability":"","Status":"Đang khai thác","Lng":106.658937,"Lat":10.752566,"Search":"RDQ 68 CVL","Routes":"01, 05, 07, 08, 10, 45, 56, 62"},{"StopId":4,"Code":"Q5 055","Name":"Lương Nhữ Học","StopType":"Trụ dừng","Zone":"Quận 5","Ward":null,"AddressNo":"727","Street":"Nguyễn Trãi","SupportDisability":"","Status":"Đang khai thác","Lng":106.660418,"Lat":10.752962,"Search":"LNH 727 NT","Routes":"01, 91"},{"StopId":7,"Code":"Q5 056","Name":"Triệu Quang Phục","StopType":"Trụ dừng","Zone":"Quận 5","Ward":null,"AddressNo":"695","Street":"Nguyễn Trãi","SupportDisability":"","Status":"Đang khai thác","Lng":106.662081,"Lat":10.753088,"Search":"TQP 695 NT","Routes":"01, 91"},{"StopId":9,"Code":"Q5 057","Name":"Đại học Sư phạm Thể dục thể thao","StopType":"Nhà chờ","Zone":"Quận 5","Ward":null,"AddressNo":"639","Street":"Nguyễn Trãi","SupportDisability":"","Status":"Đang khai thác","Lng":106.663486,"Lat":10.753341,"Search":"DhSpTdtt 639 NT","Routes":"01, 91"},{"StopId":12,"Code":"Q5 058","Name":"Siêu thị Điện máy Chợ Lớn","StopType":"Trụ dừng","Zone":"Quận 5","Ward":null,"AddressNo":"635B","Street":"Nguyễn Trãi","SupportDisability":"","Status":"Đang khai thác","Lng":106.664913,"Lat":10.753626,"Search":"StDmCL 635B NT","Routes":"01, 91"},{"StopId":6,"Code":"Q5 059","Name":"Ngô Quyền","StopType":"Trụ dừng","Zone":"Quận 5","Ward":null,"AddressNo":"593","Street":"Nguyễn Trãi","SupportDisability":"","Status":"Đang khai thác","Lng":106.666882,"Lat":10.754,"Search":"NQ 593 NT","Routes":"01, 91"},{"StopId":10,"Code":"Q5 060","Name":"Chung cư Nguyễn Trãi","StopType":"Trụ dừng","Zone":"Quận 5","Ward":null,"AddressNo":"549","Street":"Nguyễn Trãi","SupportDisability":"","Status":"Đang khai thác","Lng":106.668572,"Lat":10.754337,"Search":"CcNT 549 NT","Routes":"01, 91"},{"StopId":11,"Code":"Q5 072","Name":"Siêu thị Điện máy","StopType":"Trụ dừng","Zone":"Quận 5","Ward":null,"AddressNo":"99","Street":"Nguyễn Tri Phương","SupportDisability":"","Status":"Đang khai thác","Lng":106.669418,"Lat":10.754023,"Search":"StDm 99 NTP","Routes":"01, 59"},{"StopId":14,"Code":"Q5 099","Name":"Nhà Văn hóa Quận 5","StopType":"Trụ dừng","Zone":"Quận 5","Ward":null,"AddressNo":"388","Street":"Trần Phú","SupportDisability":"","Status":"Đang khai thác","Lng":106.668588,"Lat":10.753025,"Search":"NVhQ5 388 TP","Routes":"01, 59"},{"StopId":16,"Code":"Q5 093","Name":"Đồng Khánh","StopType":"Trụ dừng","Zone":"Quận 5","Ward":null,"AddressNo":"41","Street":"Trần Hưng Đạo","SupportDisability":"","Status":"Đang khai thác","Lng":106.670412,"Lat":10.752677,"Search":"DK 41 THD","Routes":"01"},{"StopId":17,"Code":"Q5 094","Name":"An Bình","StopType":"Trụ dừng","Zone":"Quận 5","Ward":null,"AddressNo":"1149","Street":"Trần Hưng Đạo","SupportDisability":"","Status":"Đang khai thác","Lng":106.672837,"Lat":10.752977,"Search":"AB 1149 THD","Routes":"01"},{"StopId":13,"Code":"Q5 095","Name":"Rạp Đồng Tháp","StopType":"Trụ dừng","Zone":"Quận 5","Ward":null,"AddressNo":"981","Street":"Trần Hưng Đạo","SupportDisability":"","Status":"Đang khai thác","Lng":106.675937,"Lat":10.753784,"Search":"RDT 981 THD","Routes":"01"},{"StopId":15,"Code":"Q5 096","Name":"Bệnh viện Chấn Thương Chỉnh hình","StopType":"Nhà chờ","Zone":"Quận 5","Ward":null,"AddressNo":"929","Street":"Trần Hưng Đạo","SupportDisability":"","Status":"Đang khai thác","Lng":106.678271,"Lat":10.754421,"Search":"BvCTCh 929 THD","Routes":"01"},{"StopId":19,"Code":"Q5 097","Name":"Trần Bình Trọng","StopType":"Trụ dừng","Zone":"Quận 5","Ward":null,"AddressNo":"813","Street":"Trần Hưng Đạo","SupportDisability":"","Status":"Đang khai thác","Lng":106.680041,"Lat":10.754912,"Search":"TBT 813 THD","Routes":"01"},{"StopId":20,"Code":"Q5 098","Name":"Nguyễn Biểu","StopType":"Trụ dừng","Zone":"Quận 5","Ward":null,"AddressNo":"651","Street":"Trần Hưng Đạo","SupportDisability":"","Status":"Đang khai thác","Lng":106.68437,"Lat":10.756066,"Search":"NB 651 THD","Routes":"01"},{"StopId":18,"Code":"Q1 131","Name":"Chợ Nanci","StopType":"Trụ dừng","Zone":"Quận 1","Ward":null,"AddressNo":"563-565","Street":"Trần Hưng Đạo","SupportDisability":"","Status":"Đang khai thác","Lng":106.685883,"Lat":10.75699,"Search":"CN 563-565 THD","Routes":"01, 139, 152"},{"StopId":22,"Code":"Q1 132","Name":"Tổng Cty Samco","StopType":"Nhà chờ","Zone":"Quận 1","Ward":null,"AddressNo":"393 bis","Street":"Trần Hưng Đạo","SupportDisability":"","Status":"Đang khai thác","Lng":106.688254,"Lat":10.759734,"Search":"TCS 393b THD","Routes":"01, 139, 152"},{"StopId":21,"Code":"Q1 133","Name":"Sở PCCC","StopType":"Nhà chờ","Zone":"Quận 1","Ward":null,"AddressNo":"359","Street":"Trần Hưng Đạo","SupportDisability":"","Status":"Đang khai thác","Lng":106.689096,"Lat":10.760656,"Search":"SP 359 THD","Routes":"01, 139, 152"},{"StopId":23,"Code":"Q1 134","Name":"Hồ Hảo Hớn","StopType":"Trụ dừng","Zone":"Quận 1","Ward":null,"AddressNo":"301F","Street":"Trần Hưng Đạo","SupportDisability":"","Status":"Đang khai thác","Lng":106.690636,"Lat":10.762395,"Search":"HHH 301F THD","Routes":"01, 139, 152"},{"StopId":24,"Code":"Q1 135","Name":"Bệnh Viện Răng Hàm Mặt","StopType":"Nhà chờ","Zone":"Quận 1","Ward":"Phường Cô Giang","AddressNo":"263","Street":"Trần Hưng Đạo","SupportDisability":"","Status":"Đang khai thác","Lng":106.691612,"Lat":10.763567,"Search":"BVRHM 263 THD","Routes":"01, 139, 152"},{"StopId":25,"Code":"Q1 136","Name":"Rạp Trần Hưng Đạo","StopType":"Nhà chờ","Zone":"Quận 1","Ward":null,"AddressNo":"227 - 229","Street":"Trần Hưng Đạo","SupportDisability":"","Status":"Đang khai thác","Lng":106.693069,"Lat":10.765213,"Search":"RTHD 227-229 THD","Routes":"01, 139, 152, 45, 53, 56"},{"StopId":26,"Code":"Q1 137","Name":"KTX Trần Hưng Đạo","StopType":"Nhà chờ","Zone":"Quận 1","Ward":null,"AddressNo":"135/40 (135)","Street":"Trần Hưng Đạo","SupportDisability":"","Status":"Đang khai thác","Lng":106.694824,"Lat":10.767064,"Search":"KTHD 135/40( THD","Routes":"01, 139, 152, 45, 53, 56, 88"},{"StopId":27,"Code":"Q1 138","Name":"Nguyễn Kim","StopType":"Nhà chờ","Zone":"Quận 1","Ward":null,"AddressNo":"71C","Street":"Trần Hưng Đạo","SupportDisability":"","Status":"Đang khai thác","Lng":106.695847,"Lat":10.768327,"Search":"NK 71C THD","Routes":"01, 152, 31, 38, 45, 53, 56, 61-6, 75, 86, 88"},{"StopId":7266,"Code":"Q1 180","Name":"Trạm Trung chuyển trên đường Hàm Nghi","StopType":"Nhà chờ","Zone":"Quận 1","Ward":"Phường Nguyễn Thái Bình","AddressNo":"Hàm Nghi 7","Street":"Hàm Nghi","SupportDisability":"Có","Status":"Đang khai thác","Lng":106.700807,"Lat":10.770896,"Search":"TTctdHN HN7 HN","Routes":"01, 03, 04, 19, 56, 88"},{"StopId":7693,"Code":"Q1 1950","Name":"Nam Kỳ Khởi Nghĩa","StopType":"Nhà chờ","Zone":"Quận 1","Ward":"Phường Nguyễn Thái Bình","AddressNo":"93-95","Street":"Hàm Nghi","SupportDisability":"Có","Status":"Đang khai thác","Lng":106.701354,"Lat":10.770875,"Search":"NKKN 93-95 HN","Routes":"01, 03, 04, 19, 88"},{"StopId":1256,"Code":"Q1 195","Name":"Chợ Cũ","StopType":"Nhà chờ","Zone":"Quận 1","Ward":"Phường Nguyễn Thái Bình","AddressNo":"89A","Street":"Hàm Nghi","SupportDisability":"","Status":"Đang khai thác","Lng":106.701998,"Lat":10.770811,"Search":"CC 89A HN","Routes":"01, 03, 04, 152, 18, 19, 31, 36, 45, 52, 56, 61-6, 75, 86, 88, 93"},{"StopId":32,"Code":"Q1 017","Name":"Hồ Tùng Mậu","StopType":"Nhà chờ","Zone":"Quận 1","Ward":"Phường Nguyễn Thái Bình","AddressNo":"67","Street":"Hàm Nghi","SupportDisability":"","Status":"Đang khai thác","Lng":106.704074,"Lat":10.770722,"Search":"HTM 67 HN","Routes":"01, 03, 120, 19, 20, 45, 56, 61-6, 75, 88, D1, DL01"},{"StopId":31,"Code":"Q1 024","Name":"Bến Bạch Đằng","StopType":"Nhà chờ","Zone":"Quận 1","Ward":null,"AddressNo":"Bến thủy nội địa Thủ Thiêm","Street":"Tôn Đức Thắng","SupportDisability":"","Status":"Đang khai thác","Lng":106.706654,"Lat":10.774094,"Search":"BBD BtndTT TDT","Routes":"01, 03, 19, 45, 53, 56, 61-6, 88, D1, DL01"},{"StopId":34,"Code":"Q1 057","Name":"Công Trường Mê Linh","StopType":"Nhà chờ","Zone":"Quận 1","Ward":null,"AddressNo":"2","Street":"Hai Bà Trưng","SupportDisability":"","Status":"Đang khai thác","Lng":106.705822,"Lat":10.775997,"Search":"CTML 2 HBT","Routes":"01, 03, 19, 45"},{"StopId":33,"Code":"BX 06","Name":"Công Trường Mê Linh","StopType":"Bến xe","Zone":"Quận 1","Ward":null,"AddressNo":"Công trường Mê Linh","Street":"Thi Sách","SupportDisability":"","Status":"Đang khai thác","Lng":106.705856,"Lat":10.77679,"Search":"CTML CtML TS","Routes":"01"}],"RouteId":"1","RouteVarId":"2"}
{"Stops":[{"StopId":166,"Code":"BX41","Name":"Bến xe An Sương","StopType":"Bến xe","Zone":"Quận 12","Ward":null,"AddressNo":"Bến xe An Sương","Street":"Quốc lộ 22","SupportDisability":"","Status":"Đang khai thác","Lng":106.61337280273438,"Lat":10.843737602233887,"Search":"BxAS BxAS Ql22","Routes":"04, 104, 122, 151, 27, 33, 41, 61-3, 62-5, 65, 71, 74, 85"},{"StopId":167,"Code":"Q12 135","Name":"Bitis","StopType":"Nhà chờ","Zone":"Quận 12","Ward":null,"AddressNo":"487","Street":"Trường Chinh","SupportDisability":"","Status":"Đang khai thác","Lng":106.617347,"Lat":10.838891,"Search":"B 487 TC","Routes":"04, 104, 145, 27, 41, 65, 70-3"},{"StopId":172,"Code":"Q12 136","Name":"Chùa Lạc Quang","StopType":"Nhà chờ","Zone":"Quận 12","Ward":null,"AddressNo":"257","Street":"Trường Chinh","SupportDisability":"","Status":"Đang khai thác","Lng":106.620212,"Lat":10.834497,"Search":"CLQ 257 TC","Routes":"04, 104, 145, 27, 41, 65, 70-3"},{"StopId":168,"Code":"Q12 137","Name":"Chùa Vĩnh Phước","StopType":"Nhà chờ","Zone":"Quận 12","Ward":null,"AddressNo":"Chùa Vĩnh Phước","Street":"Trường Chinh","SupportDisability":"","Status":"Đang khai thác","Lng":106.621794,"Lat":10.83202,"Search":"CVP CVP TC","Routes":"04, 104, 145, 27, 41, 65"},{"StopId":169,"Code":"Q12 139","Name":"Cầu Tham Lương - Siêu thị Thiên Hòa","StopType":"Nhà chờ","Zone":"Quận 12","Ward":null,"AddressNo":"21 (Kế 2/6B)","Street":"Trường Chinh","SupportDisability":"","Status":"Đang khai thác","Lng":106.62586,"Lat":10.82624,"Search":"CTL-StTH 21(2/6B) TC","Routes":"04, 104, 13, 145, 23, 27, 41, 61-8, 62, 65, 70-3, 94"},{"StopId":174,"Code":"QTP 010","Name":"Trạm Dệt Thành Công","StopType":"Nhà chờ","Zone":"Quận Tân Phú","Ward":"Phường Tây Thạnh","AddressNo":"8","Street":"Trường Chinh","SupportDisability":"Có","Status":"Đang khai thác","Lng":106.629825,"Lat":10.822315,"Search":"TDTC 8 TC","Routes":"04, 104, 13, 145, 23, 27, 32, 41, 61-8, 62, 65, 70-3, 94"},{"StopId":173,"Code":"QTP 011","Name":"Trạm KCN Tân Bình","StopType":"Nhà chờ","Zone":"Quận Tân Phú","Ward":"Phường Tây Thạnh","AddressNo":"881","Street":"Trường Chinh","SupportDisability":"Có","Status":"Đang khai thác","Lng":106.630615,"Lat":10.819386,"Search":"TKTB 881 TC","Routes":"04, 104, 145, 23, 27, 28, 62, 65, 70-3"},{"StopId":176,"Code":"QTP 012","Name":"Ngã 3 Chế Lan Viên","StopType":"Nhà chờ","Zone":"Quận Tân Phú","Ward":"Phường Tây Thạnh","AddressNo":"831 (trước showroom o tô)","Street":"Trường Chinh","SupportDisability":"Có","Status":"Đang khai thác","Lng":106.631472,"Lat":10.817114,"Search":"N3CLV 831(sot TC","Routes":"04, 104, 145, 23, 27, 28, 62, 65, 70-3"},{"StopId":175,"Code":"QTP 013","Name":"Chế Lan Viên","StopType":"Nhà chờ","Zone":"Quận Tân Phú","Ward":"Phường Tây Thạnh","AddressNo":"28/7B","Street":"Trường Chinh","SupportDisability":"","Status":"Đã hủy","Lng":106.632748,"Lat":10.812878,"Search":"CLV 28/7B TC","Routes":"04, 104, 145, 16, 23, 27, 28, 62, 65, 70-3"},{"StopId":177,"Code":"QTP 014","Name":"Trạm Đài Liệt Sỹ","StopType":"Nhà chờ","Zone":"Quận Tân Phú","Ward":"Phường Tây Thạnh","AddressNo":"1/3","Street":"Trường Chinh","SupportDisability":"","Status":"Đang khai thác","Lng":106.634262,"Lat":10.808209,"Search":"TDLS 1/3 TC","Routes":"04, 104, 145, 16, 23, 27, 28, 48, 62, 65"},{"StopId":178,"Code":"QTB 118","Name":"Thượng Uyển","StopType":"Nhà chờ","Zone":"Quận Tân Bình","Ward":null,"AddressNo":"680 (Thượng Uyển)","Street":"Cộng Hòa","SupportDisability":"","Status":"Đang khai thác","Lng":106.636055,"Lat":10.806144,"Search":"TU 680(U CH","Routes":"04, 104, 145, 28, 70-3"},{"StopId":180,"Code":"QTB 119","Name":"Ngã tư Tân Kỳ Tân Quý","StopType":"Trụ dừng","Zone":"Quận Tân Bình","Ward":null,"AddressNo":"401","Street":"Cộng Hòa","SupportDisability":"","Status":"Đang khai thác","Lng":106.637887,"Lat":10.803541,"Search":"NtTKTQ 401 CH","Routes":"04, 104, 145, 28"},{"StopId":181,"Code":"QTB 120","Name":"ETown","StopType":"Nhà chờ","Zone":"Quận Tân Bình","Ward":null,"AddressNo":"ETown","Street":"Cộng Hòa","SupportDisability":"","Status":"Đang khai thác","Lng":106.640253,"Lat":10.802371,"Search":"E E CH","Routes":"04, 104, 145, 28, 70-3"},{"StopId":179,"Code":"QTB 121","Name":"Ngã ba Bình Giã","StopType":"Trụ dừng","Zone":"Quận Tân Bình","Ward":null,"AddressNo":"303","Street":"Cộng Hòa","SupportDisability":"","Status":"Đang khai thác","Lng":106.644292,"Lat":10.802055,"Search":"NbBG 303 CH","Routes":"04, 104, 145, 28, 70-3"},{"StopId":183,"Code":"QTB 122","Name":"Công ty Lô Hội","StopType":"Nhà chờ","Zone":"Quận Tân Bình","Ward":null,"AddressNo":"19A (Công ty Lô Hội)","Street":"Cộng Hòa","SupportDisability":"","Status":"Đang khai thác","Lng":106.650413,"Lat":10.801544,"Search":"CtLH 19A(tLH CH","Routes":"04, 104, 145, 28, 70-3"},{"StopId":182,"Code":"QTB 123","Name":"Pico Plaza","StopType":"Nhà chờ","Zone":"Quận Tân Bình","Ward":null,"AddressNo":"20Bis","Street":"Cộng Hòa","SupportDisability":"","Status":"Đang khai thác","Lng":106.653637,"Lat":10.801254,"Search":"PP 20Bis CH","Routes":"04, 104, 145, 28, 70-3"},{"StopId":185,"Code":"QTB 124","Name":"Ngã ba Út tịch","StopType":"Trụ dừng","Zone":"Quận Tân Bình","Ward":null,"AddressNo":"35-37","Street":"Cộng Hòa","SupportDisability":"","Status":"Đang khai thác","Lng":106.656679,"Lat":10.800985,"Search":"NbÚt 35-37 CH","Routes":"04, 104, 145, 28"},{"StopId":184,"Code":"QTB 125","Name":"Siêu thị Maximart Cộng Hòa","StopType":"Nhà chờ","Zone":"Quận Tân Bình","Ward":null,"AddressNo":"Đối diện 58 (Siêu thị Maximart)","Street":"Cộng Hòa","SupportDisability":"","Status":"Đang khai thác","Lng":106.658819,"Lat":10.800833,"Search":"StMCH Dd58(tM CH","Routes":"04, 104, 145, 28, 70-3"},{"StopId":187,"Code":"QTB 036","Name":"Công viên Hoàng Văn Thụ","StopType":"Nhà chờ","Zone":"Quận Tân Bình","Ward":null,"AddressNo":"259","Street":"Hoàng Văn Thụ","SupportDisability":"","Status":"Đang khai thác","Lng":106.663578,"Lat":10.800469,"Search":"CvHVT 259 HVT","Routes":"04, 08, 103, 104, 148, 50, 59, 64"},{"StopId":186,"Code":"QTB 037","Name":"Bảo Tàng Miền Đông","StopType":"Nhà chờ","Zone":"Quận Tân Bình","Ward":null,"AddressNo":"247","Street":"Hoàng Văn Thụ","SupportDisability":"","Status":"Đang khai thác","Lng":106.666372,"Lat":10.800237,"Search":"BTMD 247 HVT","Routes":"04, 08, 104, 109, 152, 64"},{"StopId":188,"Code":"QPN 043","Name":"Cây xăng Quân khu 7","StopType":"Trụ dừng","Zone":"Quận Phú Nhuận","Ward":null,"AddressNo":"307","Street":"Nguyễn Văn Trỗi","SupportDisability":"","Status":"Đang khai thác","Lng":106.66847,"Lat":10.799589,"Search":"CxQk7 307 NVT","Routes":"04, 109, 152"},{"StopId":190,"Code":"QPN 044","Name":"Bệnh viện Quận Phú Nhuận","StopType":"Trụ dừng","Zone":"Quận Phú Nhuận","Ward":null,"AddressNo":"279","Street":"Nguyễn Văn Trỗi","SupportDisability":"","Status":"Đang khai thác","Lng":106.670744,"Lat":10.798282,"Search":"BvQPN 279 NVT","Routes":"04, 109, 152"},{"StopId":191,"Code":"QPN 045","Name":"Cổng Xe lửa","StopType":"Trụ dừng","Zone":"Quận Phú Nhuận","Ward":null,"AddressNo":"253","Street":"Nguyễn Văn Trỗi","SupportDisability":"","Status":"Đang khai thác","Lng":106.673609,"Lat":10.796596,"Search":"CXl 253 NVT","Routes":"04, 109, 152"},